type,noun,Typical.Action.Chain.Pos,province,state,negation,broad.regions,locality,before,token,after,tense,corpus,long,lat,characters_before_noun,noun_length
singular,guapas,head,Lérida,Cataluña,absent,East,Torregrossa, las bodas... | ,había," my guapas,",other,Coser,0.8292647,41.5803917,5,6
singular,probabilidades,tail.setting,Cádiz,Andalusia,absent,South,Cádiz,"es_vsip000 su_dp0000 trabajo_nc0s000 ,_fc una_di0000 mierda_nc0s000 de_sp000 trabajo_nc0s000 ._fpél_pp000000 se_p0000000 la_pp000000 ha_vaip000 jugado_vmp0000 ,_fc se_p0000000 ha_vaip000 puesto_vmp0000 delante_rg y_cc le_pp000000 pasó_vmis000 lo_da0000 que_pr000000",había_vaii000,probabilidades_nc0p000 de_sp000 que_pr000000 pasara._nc0s000,other,Twitter,-6.2885962,36.5270612,15,14
singular,matarifes,head,Madrid,Comunidad de Madrid,absent,Center,Valdilecha,"sí, ",había," matarifes, que llamaban. u",other,Coser,-3.3023856,40.2937839,18,9
plural,fotos,tail.setting,Barcelona,Catalonia,absent,East,Barcelona,no_rn me_pp000000 puedo_vmip000 creer_vmn0000 que_cs,hayan_vasp000,aparecido_aq0000 fotos_nc0p000 inéditas_aq0000 mías_nc0p000 de_sp000 cuando_cs voy_vmip000 en_sp000 metro_nc0s000 en_sp000 invierno_nc0s000 a_sp000 las_da0000 730_z0 httpst.colhvuzdhrll_nc0s000,other,Twitter,2.1734035,41.3850639,89,5
singular,olivas,tail.setting,Toledo,Castilla-La-Mancha,absent,Center,Tembleque,. yo no sé cuántas olivas ,habrá, ,other,Coser,-3.5041358,39.6958069,1,6
singular,auroras,tail.setting,Madrid,Community of Madrid,absent,Center,Madrid,kami_orochi_np00000 dicen_vmip000 q_np00000,habrá_vaif000,auroras_nc0p000 boreales_aq0000 mas_rg intensas_aq0000,other,Twitter,-3.7037902,40.4167754,22,7
plural,oportunidades,tail.setting,Asturias,Asturias,absent,North,Gijón,siempre_rg,habrán_vaif000,oportunidades_nc0p000 repetidas_aq0000 ._fp°_vmis000 °_f0 °_f0 °_f0 °_f0 °_f0 °_f0 °_f0 °_f0 ___________z0 °_f0 °_f0 °_f0 °_f0 °_f0 °_f0 °_f0 °_f0 °_f0 °_f0 ------------_aq0000 publicidad_nc0s000 ------------_aq0000 ..._fs https://t.co/nscf45oyic,other,Twitter,-5.6611195,43.5322015,125,13
plural,personas,head,Barcelona,Catalonia,absent,East,Barcelona,no_rn se_pp000000 cómo_pt000000,pueden_vmip000 haber_van0000,"personas_nc0p000 que_pr000000 crean_vmsp000 que_cs la_da0000 violencia_nc0s000 tanto_rg física_aq0000 como_cs psicológica_aq0000 a_sp000 una_di0000 pareja_nc0s000 o_cc a_sp000 cualquier_di0000 otra_di0000 persona_nc0s000 ,_fc es_vsip000 normal_aq0000",other,Twitter,2.1734035,41.3850639,109,8
singular,consecuencias,tail.setting,A Coruña,Galicia,absent,North,A Coruña,siempre_rg dije_vmis000 que_cs todos_di0000 éramos_vsii000 libres_aq0000 de_sp000 hacer_vmn0000 lo_da0000 que_pr000000 quisiéramos_vmsp000 pero_cc que_cs,había_vaii000,"consecuencias_nc0p000 ,_fc siempre_rg lo_pp000000 hizo_vmis000 mal_rg conmigo_nc0s000 y_cc nunca_rg las_pp000000",other,Twitter,-8.4115401,43.3623436,42,13
singular,sorpresas,tail.setting,Madrid,Community of Madrid,absent,Center,Madrid,#cuentodeluz_ao0000 y_cc fundación_nc0s000 lqdvi_np00000 pronto_rg,habrá_vaif000,sorpresas_nc0p000 !_fatsilvialvarezc_rg albert_bosch_np00000 mariaflqdvi_np00000 mariasalab_aq0000 httpst.corxudxip6rc_z0,other,Twitter,-3.7037902,40.4167754,52,9
singular,fichajes,tail.setting,Córdoba,Andalusia,present,South,Córdoba,isidoro_b_nc00000 juli_aq0000 y_cc pineda_aq0000 ._fpahí_rg no_rn,habrá_vaif000,fichajes_nc0p000 ._fp,other,Twitter,-4.7793835,37.8881751,2,8
singular,truenos,head,Barcelona,Catalonia,absent,East,Barcelona,parece_vmip000 que_cs va_vmip000 a_sp000 llover_vmn0000 y_cc recuerdo_vmip000 que_cs hace_vmip000 3_z0 años_nc0p000 llovió_vmis000 y_cc,hubo_vais000,truenos_nc0p000 como_cs nunca_rg y_cc no_rn creo_vmip000 en_sp000 estas_dd0000 cosas_nc0p000 pero_cc echo_np00000 de_sp000 menos_rg a_sp000 cory_np00000,synthetic.preterit,Twitter,2.1734035,41.3850639,62,7
singular,discordias,tail.setting,Segovia,Castilla y León,absent,Center,Muñoveros,"generalmente, siempre ",había, discordias entre,other,Coser,-3.9515009,41.1724717,7,10
singular,molinos,head,La Rioja,La Rioja,absent,North,Nestares,"en argote, que ",había, molinos,other,Coser,-2.6195475,42.2698898,1,7
singular,genocidios,tail.setting,Madrid,Community of Madrid,absent,Center,Madrid,despidodiferido_aq0000 elpais_espana_np00000 en_sp000 la_da0000 alemania_aq0000 nazi_nc0s000,hubo_vais000,genocidios_nc0p000 y_cc ahora_rg tambiénsólo_aq0000 hace_vmip000 falta_nc0s000 un_di0000 poquito_aq0000 de_sp000 #verguenza_nc0s000,synthetic.preterit,Twitter,-3.7037902,40.4167754,56,10
singular,periodistas,head,Sevilla,Andalusia,absent,South,Alcolea del Río,javiveliz_nc0s000 es_vsip000 una_di0000 maravilla_nc0s000 que_cs,haya_vasp000,periodistas_nc0p000 que_cs retransmitan_vmsp000 así_rg un_di0000 partido_nc0s000 ._fpenhorabuena_nc0s000 crack_nc0s000 ._fpquedan_vmip000 muy_rg pocos_pi000000 como_cs tú_pp000000 ._fprealbetis_nc0n000,other,Twitter,-5.6681456,37.6158112,62,11
singular,likes,tail.setting,Cantabria,Cantabria,present,North,Santander,#cuandoyoempecéentwitter_nc00000 no_rn,había_vaii000,"likes_nc0p000 ,_fc",other,Twitter,-3.8099803,43.4623057,2,5
singular,restricciones,tail.setting,Pontevedra,Galicia,absent,North,Vigo,atención_nc0s000 amig_nc0s000 conductor_aq0000 este_dd0000 martes_w y_cc el_da0000 miércoles_w,habrá_vaif000,restricciones_nc0p000 circulación_nc0s000 en_sp000 rúa_nc0s000 colón_aq0000 en.concellotui_np00000 ._fphttpst.com61h4rpza1_nc0s000,other,Twitter,-8.7207268,42.2405989,55,13
singular,ofertas,tail.setting,Valencia,Valencian Community,absent,East,Cheste,"frantorralva_nc0s000 yo_pp000000 hubiera_vasi000 apretado_aq0000 más_rg por_sp000 andré_rg ,_fc",había_vaii000,"ofertas_nc0p000 más_rg gordas_aq0000 ,_fc se_p0000000",other,Twitter,-0.6856076,39.4934832,16,7
singular,cosechadoras,head,Álava,País Vasco,present,North,Menagarai,no ,había," cosechadoras, dos meses entre segar y trillar,",other,Coser,-3.0735861,43.0957124,35,12
plural,cosas,tail.setting,Ciudad Real,Castilla-La-Mancha,absent,Center,Argamasilla de Alba,o ,habían," cosas y lo que pasa,",other,Coser,-3.0951959000000002,39.1264201,16,5
singular,chubascos,tail.setting,Granada,Andalusia,absent,South,Granada,atentos_aq0000 al_vaip000 cielo_nc0s000 ._fphoy_rg de_sp000 nuevo_aq0000,puede_vmip000 haber_van0000,chubascos_nc0p000 o_cc tormentas_nc0p000 httpst.co9hcemoqzlu_z0 httpst.cohxqxccv79d_nc0s000,other,Twitter,-3.5985571,37.1773363,52,9
singular,mujeres,head,Málaga,Andalusia,present,South,Málaga,manuroldansal_nc0s000 y_cc tan_rg ausente_aq0000 en_sp000 los_da0000 libros_nc0p000 de_sp000 arte_nc0s000 ._fpno_rn la_pp000000 conocía_vmii000 ._fpnunca_rg me_p0000000 cuestioné_vmip000 por_sp000 qué_pt000000 no_rn,había_vaii000,mujeres_nc0p000 pintoras_aq0000 en_sp000 aquella_dd0000 época._nc0s000,other,Twitter,-4.4212655,36.721261,27,7
singular,casas,tail.setting,Salamanca,Castilla y León,absent,Center,Alaraz,,había, aquí dos casas que tenían panales,other,Coser,-5.2880368,40.7481298,29,5
singular,diputados,head,Barcelona,Catalonia,absent,East,Barcelona,alvarolario_nc0s000 hola_nc0s000 y_cc si_cs,hubo_vais000,"diputados_nc0p000 andalucistas_nc0p000 en_sp000 barcelona_vmm0000 ,_fc por_sp000 qué_pt000000 no_rn iba_vmii000 a_sp000 poder_vmn0000 ser_vsn0000 esto_pd000000 cierto_aq0000 -rrb-_np00000 httpst.cowatfztl63e_nc0s000",synthetic.preterit,Twitter,2.1734035,41.3850639,93,9
singular,personas,head,Badajoz,Extremadura,absent,South,Mérida,siempre_rg,habrá_vaif000,personas_nc0p000 que_pr000000 serán_vsif000 especiales_nc0p000 ._fpsiempre._nc0n000,other,Twitter,-6.3408055,38.9191439,24,8
singular,imputados,head,Barcelona,Catalonia,present,East,Barcelona,ciudadanoscs_nc0p000 pide_vmip000 q_np00000 no_rn,haya_vasp000,imputados_nc0p000 en_sp000 el_da0000 gobierno_nc0s000 para_sp000 dar_vmn0000 el_da0000 sí_rg a_sp000 rajoy_nc0s000 ..._fs pero_cc si_cs el_da0000 pp_nc0n000 entero_aq0000 está_vmip000 imputado!httpst.coe1xsrs0hhu_z0,other,Twitter,2.1734035,41.3850639,97,9
singular,fuentes,tail.setting,Huesca,Aragón,present,East,Banastón,"no, no ",había," fuentes,",other,Coser,0.1672026,42.4061618,2,7
singular,opciones,tail.setting,Murcia,Region of Murcia,absent,South,Murcia,esta_dd0000 foto_nc0s000 con_sp000 el_da0000 cámara_nc0s000 ahí_rg ..._fs no_rn la_pp000000 entiendo_vmip000 ._fpcreo_vmip000 que_cs,había_vaii000,opciones_nc0p000 mucho_rg mejores_aq0000 ._fphttpst.cob8mn6webgp_nc0s000 #por_aq0000 httpst.com9ycyx7vjl_nc0s000,other,Twitter,-1.1306544,37.9922399,54,8
plural,problemas,tail.setting,Castellón,Valencian Community,present,East,Castellón de la Plana,"dannielmeri_nc00000 si_cs dejarais_vmip000 de_sp000 comentar_vmn0000 cosaa_nc0s000 que_cs pueden_vmip000 malinterpretarse_vmn0000 ,_fc no_rn",habrían_vaic000,problemas_nc0p000 -rrb-_aq0000,other,Twitter,-0.0513246,39.9863563,6,9
singular,preguntas,tail.setting,Valencia,Valencian Community,absent,East,Valencia,"la_da0000 nueva_aq0000 reválida_nc0s000 la_da0000 misma_pi000000 duración_nc0s000 que_pr000000 en_sp000 selectividad_nc0s000 ,_fc",habrá_vaif000,preguntas_nc0p000 tipo_nc0s000 test_nc0s000 y_cc examen_nc0s000 en_sp000 formato_nc0s000 digital_aq0000 ._fphttpst.codmoihvr2f8_nc0s000,other,Twitter,-0.3762881,39.4699075,53,9
singular,cambios,tail.setting,Madrid,Community of Madrid,absent,Center,Madrid,pepsi_aq0000 junta_nc0s000 firmas_nc0p000 para_sp000 que_cs,haya_vasp000,cambios_nc0p000 en_sp000 millonarios_aq0000 httpst.cojkuhjamttx_np00000 #marketingdeportivo_np00000,other,Twitter,-3.7037902,40.4167754,55,7
singular,médicos,head,Madrid,Comunidad de Madrid,absent,Center,Manzanares el Real,en principio yo pequeña ,había," dos [médicos], dos nada más, que uno era el tío de ",other,Coser,-3.8646893,40.7262858,45,7
singular,hombres,head,Teruel,Aragón,absent,East,Fuentes Claras,porque los hombres a lo mejor mientras los ,había, ,other,Coser,-1.3198112,40.8633848,1,7
singular,bomberos,head,Pontevedra,Galicia,absent,North,Vigo,gimlipollas_nc0p000,había_vaii000,bomberos_nc0p000 en_sp000 la_da0000 entrada_nc0s000 de_sp000 queimadelos_nc0p000 viniendo_vmg0000 de_sp000 villasobroso_aq0000 a_sp000 mondariz._np00000,other,Twitter,-8.7207268,42.2405989,66,8
plural,dias,tail.setting,Valencia,Valencian Community,absent,East,Oliva,buenos_aq0000 días_nc0p000 valientes_aq0000 !!!_aq0000aunque_cs,hayan_vasp000,"dias_nc0p000 en_sp000 que_pr000000 las_da0000 nubes_nc0p000 grises_aq0000 tapan_vmip000 el_da0000 cielo_nc0s000 azul_aq0000 ,_fc no_rn te_pp000000 rindas_vmip000 nunca_rg jamas_nc0p000 ,_fc ..._fs httpst.coj4fllxu6ug_nc0s000",other,Twitter,-0.1187855,38.9197587,97,4
singular,mujeres,head,Madrid,Community of Madrid,present,Center,Madrid,"según_cs reutersuk_vmm0000 ,_fc en_sp000 la_da0000 primera_ao0000 votación_nc0s000 ,_fc con_sp000 seis_dn0000 mujeres_nc0p000 y_cc seis_dn0000 hombres_nc0p000 ,_fc no_rn",hubo_vais000,mujeres_nc0p000 en_sp000 los_da0000 dos_dn0000 primeros_ao0000 puestos._nc0p000,synthetic.preterit,Twitter,-3.7037902,40.4167754,29,7
singular,caceroladas,tail.setting,Toledo,Castile-La Mancha,absent,Center,Torrijos,"#lnnegociaciones_nc0p000 si_cs los_da0000 políticos_nc0p000 siguen_vmip000 empeñados_aq0000 en_sp000 esta_dd0000 tesitura_nc0s000 ,_fc",habrá_vaif000,caceroladas_nc0p000 y_cc +_fz abucheos._vmip000,other,Twitter,-4.2811456,39.9833124,14,11
singular,ovejas,head,Madrid,Comunidad de Madrid,absent,Center,Manzanares el Real, pero aquí ,ha habido," pues muchas ovejas, muchas cabras, ",other,Coser,-3.8646893,40.7262858,30,6
plural,fechas,tail.setting,Province of Girona,Catalonia,absent,East,Sant Feliu de Guíxols,"abrahammateomus_nc0n000 oye_vmip000 ,_fc",habrán_vaif000,más_rg fechas_nc0p000 para_sp000 españa_nc0p000 #abrahammateo_aq0000 #kcamexico_aq0000,other,Twitter,3.031659,41.785023700000004,41,6
singular,personas,head,Madrid,Community of Madrid,absent,Center,Colmenarejo,y_cc qué_pt000000 bonito_aq0000 es_vsip000 que_cs,haya_vasp000,personas_nc0p000 que_cs hagan_vmsp000 que_cs tu_dp0000 risa_nc0s000 sea_vssp000 un_di0000 poco_rg más_rg fuerte_aq0000 y_cc tu_dp0000 sonrisa_nc0s000 un_di0000 poco_rg más_rg brillante,other,Twitter,-4.0167486,40.5609399,80,8
singular,novedades,tail.setting,Madrid,Community of Madrid,absent,Center,Madrid,rubens_cr_nc0s000 cuando_cs,haya_vasp000,novedades_nc0p000 lo_da0000 comunicaremos_vmif000 ._fpsaludos._nc0n000,other,Twitter,-3.7037902,40.4167754,20,9
singular,escuelas,tail.setting,Córdoba,Andalucía,absent,South,Santaella,,había," tre-, tres escuelas,",other,Coser,-4.8429898,37.5622053,13,8
plural,profesores,head,Alicante,Valencian Community,present,East,Alicante,pensaba_z0 que_pr000000 no_rn,habían_vaii000,profesores_nc0p000 tan_rg hdp_aq0000 pero_cc ya_rg veo_vmip000 que_cs sí_pp000000 ..._fs por_sp000 no_rn decir_vmn0000 más.,other,Twitter,-0.4906855,38.3459963,49,10
singular,personas,head,Ciudad Real,Castilla-La-Mancha,absent,Center,Argamasilla de Alba, terminó la guerra y él pues ,había," muchos que sí, te avisaban a trabajar,",other,Coser,-3.0951959000000002,39.1264201,39,8
singular,confusiones,tail.setting,Madrid,Community of Madrid,present,Center,Madrid,"cuando_cs dicen_vmip000 ""_fe pagado_aq0000 por_sp000 el_da0000 ministerio_nc0s000 ""_fe se_p0000000 refieren_vmip000 a_sp000 todos_di0000 nosotros_pp000000 ._fppara_sp000 que_cs no_rn",haya_vasp000,confusiones_nc0p000 ._fphttpst.cojqmeiwln4e_nc0s000,other,Twitter,-3.7037902,40.4167754,15,11
singular,novedades,tail.setting,Madrid,Community of Madrid,absent,Center,Madrid,@juanillosald_np00000 los_da0000 clientes_nc0p000 tengan_vmsp000 los_da0000 mejores_aq0000 contenidos_nc0p000 ._fpcuando_cs,haya_vasp000,novedades_nc0p000 lo_da0000 comunicaremos_vmif000 ._fpsaludos.,other,Twitter,-3.7037902,40.4167754,20,9
singular,nubes,tail.setting,Madrid,Community of Madrid,absent,Center,Madrid,"anamigallongil_aq0000 como_cs vea_vmsp000 una_di0000 foto_nc0s000 mas_rg de_sp000 playa_nc0s000 ,_fc aunque_cs",haya_vasp000,nubes_nc0p000 block_nc0s000 !!_z0jajajajaja_nc0s000 con_sp000 cuñada_nc0s000 y_cc todo_pi000000 !_fatcav_carmen_nc0n000,other,Twitter,-3.7037902,40.4167754,29,5
singular,regalos,tail.setting,Málaga,Andalusia,absent,South,Málaga,evento_nc0s000 solidario_aq0000 a_sp000 favor_nc0s000 de_sp000 la_da0000 asociación_nc0s000 alhelí_aq0000 ._fpanímate_nc0s000 y_cc juega_vmm0000 .,habrá_vaif000,regalos_nc0p000 y_cc sorpresas_nc0p000 httpst.cof9jie5dhzk_z0,other,Twitter,-4.4212655,36.721261,32,7
singular,intercambios,tail.setting,Ciudad Real,Castile-La Mancha,absent,Center,La Solana,"vinieron_vmis000 los_da0000 que_pr000000 pudieron_vmis000 y_cc los_da0000 que_pr000000 no_rn se_p0000000 lo_pp000000 perdieron_vmis000 ,_fc",hubo_vais000,"intercambios_nc0p000 de_sp000 expresión_nc0s000 ,_fc puntos_nc0p000 de_sp000 vista_nc0s000 ,_fc ideas_nc0p000 ..._fs httpst.corxslsn5guv_nc0s000",synthetic.preterit,Twitter,-3.2392014,38.9416013,63,12
singular,cajeros,head,Cádiz,Andalusia,absent,South,Jerez de la Frontera,a_sp000 mi_dp0000 no_rn me_p0000000 llama_vmip000 la_da0000 atención_nc0s000 lo_pp000000 del_sp000 tractor_nc0s000 ._fpme_p0000000 llama_vmip000 la_da0000 atención_nc0s000 que_pr000000,haya_vasp000,cajeros_nc0p000 en_sp000 una_di0000 comuna_nc0s000 ..._fs httpst.cojun73uante_nc0s000,other,Twitter,-6.1260744,36.6850064,38,7
singular,goles,tail.setting,Madrid,Community of Madrid,absent,Center,Madrid,¿_fia os_pp000000 acordáis_aq0000 de_sp000 cuando_cs en_sp000 el_da0000 fútbol_nc0s000,había_vaii000,goles_nc0p000 ?_fit,other,Twitter,-3.7037902,40.4167754,2,5
singular,yogures,tail.setting,Salamanca,Castilla y León,present,Center,Puebla de Yeltes,"yogures, porque entonces no ",había,,other,Coser,-6.1812053,40.6260549,0,7
singular,tractores,head,Álava,País Vasco,present,North,Menagarai,"tenía que comprar, no ",había, tratores como ahora. ,other,Coser,-3.0735861,43.0957124,22,9
singular,portalillos,tail.setting,La Rioja,La Rioja,absent,North,Ausejo,porque allí ,había," unos portalillos que se tomaba el sol, así al sol de mediodía, ",other,Coser,-2.1683571,42.3426617,53,11
singular,desigualdades,tail.setting,Barcelona,Catalonia,absent,East,Barcelona,angelvimu_nc0s000 jam1juan_z0 aquavera7_z0 elsaqueocatalan_vmip000 ppopular_aq0000 igualdad_nc0s000 en_sp000 base_nc0s000 ._fppero_cc después_rg siempre_rg,habrá_vaif000,desigualdades_nc0p000 en_sp000 función_nc0s000 de_sp000 lo_da0000 q_nc0n000,other,Twitter,2.1734035,41.3850639,19,13
singular,niños,head,Huelva,Andalucía,present,South,Zufre,"y no puede aquí, no ",puede haber, niños porque hay muy pocos aquí.,other,Coser,-4.6918715,43.069984,28,5
singular,elecciones,tail.setting,Granada,Andalusia,absent,South,Granada,"farru_marley_nc00000 jatirado_aq0000 por_sp000 fortuna_nc0s000 ,_fc aún_rg hay_vaip000 bastantes_di0000 votantes_nc0p000 q_pp000000 siguen_vmip000 teniendo_vmg0000 dos_dn0000 dedos_nc0p000 de_sp000 frente.y_np00000 más_rg va_vmip000 a_sp000 haber_van0000 como_cs",haya_vasp000,elecciones_nc0p000,other,Twitter,-3.5985571,37.1773363,0,10
singular,obras,tail.setting,Barcelona,Catalonia,present,East,Barcelona,"alffig_nc0s000 es_vsip000 una_di0000 reivindicación_nc0s000 ,_fc nunca_rg",hubo_vais000,obras_nc0p000 y_cc se_p0000000 acumulan_vmip000 averías_nc0p000 en_sp000 infraestructura_nc0s000 josepboira_vmsi000 josep_huguet_nc00000 adif_es_vmip000 elordenmundial_aq0000,synthetic.preterit,Twitter,2.1734035,41.3850639,78,5
singular,pasos,tail.setting,Murcia,Region of Murcia,absent,South,Murcia,murciarmediterr_nc0s000 antes_rg de_sp000 compactarse_vmn0000 la_da0000 manga_nc0s000,había_vaii000,más_rg pasos_nc0p000 que_pr000000 ahora_rg y_cc golas_nc0n000 de_sp000 la_da0000 encañizada_aq0000 tenían_vmii000 1m_z0 de_sp000 calado_nc0s000 y_cc ahora_rg 1_z0 palmo._nc0n000,other,Twitter,-1.1306544,37.9922399,76,5
singular,máquinas,head,Guadalajara,Castilla-La-Mancha,absent,Center,Yebra,ues antes ,había," unas máquinas que eran,",other,Coser,-2.9663075,40.3564009,16,8
singular,sombras,tail.setting,Barcelona,Catalonia,present,East,Sant Boi de Llobregat,antes_rg del_sp000 impresionismo_nc0s000 no_rn,había_vaii000,sombras_nc0p000 azules_aq0000 ._fposcar_vmn0000 wilde_vmip000 -lrb-_np00000 18541900_z0 -rrb-_np00000 dramaturgo_nc0s000 y_cc novelista_nc0s000 irlandés_aq0000 ._fphttpst.cowq5a1bkryd_nc0s000,other,Twitter,2.035041,41.3458415,83,7
singular,noticias,tail.setting,Madrid,Community of Madrid,absent,Center,Madrid,"rosypunto_nc0s000 oriateka_nc0s000 y_cc yo_pp000000 que_cs estuve_vmis000 mirando_vmg0000 hace_vmip000 días_nc0p000 ,_fc a_sp000 ver_vmn0000 si_cs",había_vaii000,noticias_nc0p000 de_sp000 ellos_pp000000 ..._fs -rrb-_np00000,other,Twitter,-3.7037902,40.4167754,19,8
singular,médicos,head,Córdoba,Andalucía,absent,South,Santaella,siempre ,ha habido, dos médicos,other,Coser,-4.8429898,37.5622053,5,7
singular,momentos,tail.setting,Madrid,Community of Madrid,present,Center,Madrid,"""_fe por_sp000 que_pr000000 no_rn volvemos_vmip000 risto_aq0000 mejide_nc00000 ""_fe httpst.codglwll0d51y_z0 cuando_pr000000 no_rn",hubo_vais000,malos_aq0000 momentos_nc0p000 por_sp000 qué_pt000000 pregunta_vmip000 q_np00000 no_rn tendrá_vmif000 respuesta._np00000,synthetic.preterit,Twitter,-3.7037902,40.4167754,46,8
singular,matrimonios,head,Madrid,Community of Madrid,absent,Center,Madrid,en_sp000 españa_nc0s000,hubo_vais000,47.721_z0 matrimonios_nc0p000 católicos_aq0000 en_sp000 2015_w ._fpes_vsip000 la_da0000 primera_ao0000 vez_nc0s000 desde_sp000 que_cs hay_vaip000 datos_nc0p000 que_pr000000 esta_dd0000 cifra_nc0s000 es_vsip000 inferior_aq0000 a_sp000 50.000_z0,synthetic.preterit,Twitter,-3.7037902,40.4167754,98,11
singular,cojones,tail.setting,Sevilla,Andalusia,present,South,Seville,no_rn,hubo_vais000,cojones_nc0p000 de_sp000 quitarle_vmsp000 el_da0000 trapo_nc0s000 ._fpdeberían_vmic000 dejar_vmn0000 sacarlo_nc0s000 así_rg ._fpviva_vmsp000 miura_nc0s000 !_fathttpst.coi7v1dyegui_nc0s000,synthetic.preterit,Twitter,-5.9844589,37.3890924,64,7
singular,preventas,tail.setting,Province of Girona,Catalonia,absent,East,Alp,capital967_z0 heidigros_nc0p000 oye_vmip000 donde_cs has_vaip000 estudiado_vmp0000 ._fpno_rn sabes_vmip000 qu_dp0000,hubo_vais000,preventas_nc0p000 en_sp000 ese_dd0000 partido_nc0s000 ese_dd0000 es_vsip000 la_da0000 politica_aq0000 de_sp000 keiko_aq0000 y_cc family_nc0s000,synthetic.preterit,Twitter,1.886116,42.3728449,52,9
singular,vacas,head,La Rioja,La Rioja,absent,North,Ausejo, en el redal también ,hubo, vacas. ,synthetic.preterit,Coser,-2.1683571,42.3426617,3,5
singular,beneficios,tail.setting,Biscay,Basque Country,present,North,Bilbao,creo_vmip000 que_cs el_da0000 athleticclub_aq0000 siempre_rg ha_vaip000 reinvertido_vmp0000 sus_dp0000 beneficios_nc0p000 -lrb-_np00000 deducción_nc0s000 en_sp000 impuesto_nc0s000 de_sp000 sociedades_nc0p000 -rrb-_np00000 y_cc no_rn,había_vaii000,beneficios_nc0p000 que_pr000000 tributar._np00000,other,Twitter,-2.9349852,43.2630126,14,10
singular,carreteras,tail.setting,Vizcaya,País Vasco,present,North,Gordexola,que no ,había, carreteras,other,Coser,-2.5074163,43.3672101,1,10
plural,opciones,tail.setting,Valencia,Valencian Community,absent,East,Valencia,parece_vmip000 que_cs en_sp000 el_da0000 futuro_nc0s000,habrán_vaif000,más_rg opciones_nc0p000 de_sp000 personalización_nc0s000 ..._fs en_sp000 serio_aq0000 me_pp000000 gustaría_vmic000 otro_di0000 peinado_vmp0000 httpst.co907pyyi8sz_nc0s000,other,Twitter,-0.3762881,39.4699075,81,8
singular,problemas,tail.setting,Barcelona,Catalonia,present,East,Barcelona,con_sp000 el_da0000 padre_nc0s000 de_sp000 rajoy_nc0s000 no_rn,hubo_vais000,"problemas_nc0p000 ,_fc pagábamos_vmii000 todos_di0000 ._fptoma_vmip000 nota_nc0s000 ,_fc pniquehttpst.covpf4xmgda6_nc0n000",synthetic.preterit,Twitter,2.1734035,41.3850639,53,9
singular,sandías,tail.setting,Málaga,Andalucía,absent,South,Antequera,"or ejemplo, la gente hacía, ",había, unas sandías que eran,other,Coser,-4.5593676,37.020001,15,7
singular,personas,head,Pontevedra,Galicia,absent,North,Vigo,rosamariaartal_aq0000 y_cc se_p0000000 queja_vmip000 de_sp000 que_cs,haya_vasp000,personas_nc0p000 que_pr000000 dan_vmip000 mala_aq0000 fama_nc0s000 a_sp000 su_dp0000 profesión_nc0s000 ..._fs,other,Twitter,-8.7207268,42.2405989,37,8
singular,centros,tail.setting,Málaga,Andalusia,absent,South,Málaga,"fittisand_nc00000 bueno_aq0000 ,_fc también_rg te_p0000000 digo_vmip000 que_cs para_sp000 algunas_di0000 cosas_nc0p000 está_vmip000 muy_rg bien_rg que_cs",haya_vasp000,"centros_nc0p000 de_sp000 referencia_nc0s000 ""_fe nacional_aq0000 ""_fe ._fpmás_rg experiencia_nc0s000",other,Twitter,-4.4212655,36.721261,41,7
singular,cuadrillas,head,Jaén,Andalucía,absent,South,Cabra del Santo Cristo,entonces cuadrillas de mujeres ,había,,other,Coser,-3.2872875,37.703349,0,10
singular,cuestiones,tail.setting,Madrid,Community of Madrid,absent,Center,Madrid,"de_sp000 la_da0000 torre_nc0s000 -lrb-_np00000 pp_nc0n000 -rrb-_np00000 ""_fe votaría_vmic000 sí_rg al_aq0000 acuerdo_nc0s000 de_sp000 ciudadanos_nc0p000 pero_cc",habría_vaic000,"cuestiones_nc0p000 que_pr000000 matizar_vmn0000 ""_fe httpst.coghno1h5vtj_z0 httpst.co6dq0wbxypv",other,Twitter,-3.7037902,40.4167754,54,10
singular,barrancos,tail.setting,Huelva,Andalucía,absent,South,Cortelazor,"y, y, y tos los que ",había, por allí que vivían en aquellos barrancos,other,Coser,-6.6252354,37.9359424,33,9
singular,problemas,tail.setting,Biscay,Basque Country,absent,North,Bilbao,viendo_vmg0000 que_cs,había_vaii000,problemas_nc0p000 con_sp000 el_da0000 vídeo_nc0s000 lo_pp000000 he_vaip000 resubido_vmp0000 se_p0000000 escucha_vmip000 bien_rg ahora_rg httpst.cobjnt6q5xgl_nc0s000,other,Twitter,-2.9349852,43.2630126,70,9
singular,casos,tail.setting,Navarra,Navarra,absent,North,Pamplona,carminamadrigal_nc0s000,había_vaii000,casos_nc0p000 como_cs la_da0000 barberá_vmif000 -rrb-_np00000,other,Twitter,-1.6457745,42.812526,22,5
singular,deportes,tail.setting,Sevilla,Andalusia,absent,South,Seville,que_cs,haya_vasp000,deportes_nc0p000 como_cs hípica_nc0s000 en_sp000 los_da0000 juegos_nc0p000 olímpicos_aq0000 y_cc no_rn este_dd0000 el_da0000 fútbol_nc0s000 sala_nc0s000 ..._fs en_sp000 fin._nc0s000,other,Twitter,-5.9844589,37.3890924,73,8
plural,ignorantes,head,Alicante,Valencian Community,absent,East,Alicante,hace_vmip000 50_z0 años_nc0p000 seguramente_rg,habían_vaii000,"ignorantes_nc0p000 como_cs tú_pp000000 diciendo_vmg0000 lo_da0000 mismo_pi000000 ,_fc de_sp000 ser_vsn0000 por_sp000 ellos_pp000000 no_rn habríamos_vaic000 avanzado_vmp0000 ._fphttpst.conistvxloq0_nc0s000",other,Twitter,-0.4906855,38.3459963,82,10
singular,noticias,tail.setting,Asturias,Asturias,absent,North,Oviedo,durante_sp000 la_da0000 #comiccon_np00000 2016_z0,podría_vmic000 haber_van0000,noticias_nc0p000 de_sp000 la_da0000 versión_nc0s000 de_sp000 #aliens_np00000 de_sp000 neil_aq0000 blomkamp_np00000 ya_rg que_pr000000 hay_vaip000 un_di0000 panel_nc0s000 con_sp000 el_da0000 casting_nc0s000 original_aq0000 #aliens_np00000,other,Twitter,-5.8493887,43.3619145,94,8
singular,extremos,tail.setting,Alicante,Valencian Community,absent,East,Alicante,si_cs es_vsip000 legal_aq0000 la_da0000 hoz_nc0s000 y_cc martillo_nc0s000 comunistas_nc0p000 también_rg lo_pp000000 es_vsip000 el_da0000 águila_nc0s000 .,debe_vmip000 haber_van0000,extremos_nc0p000 para_sp000 que_cs se_p0000000 neutralicen._nc0p000,other,Twitter,-0.4906855,38.3459963,25,8
plural,triples,tail.setting,Valencia,Valencian Community,absent,East,Valencia,xhiitt_nc00000 briihd_aq0000 pues_cs en_sp000 el_da0000 best_nc0s000 of_np00000 se_p0000000 me_pp000000 hizo_vmis000 como_sp000 que_cs,habían_vaii000,más_rg triples_nc0p000 hs_vaip000 que_cs inter_vmn0000 multis_rg xddd_nc0s000,other,Twitter,-0.3762881,39.4699075,29,7
singular,personas,head,Madrid,Community of Madrid,absent,Center,Madrid,,podría_vmic000 haber_van0000,más_rg personas_nc0p000 en_sp000 el_da0000 mundo_nc0s000 como_cs esteruss_nc0p000 osea_vmip000 que_cs amor_nc0s000,other,Twitter,-3.7037902,40.4167754,44,8
singular,relaciones,tail.setting,Tarragona,Catalonia,present,East,Tarragona,"f9nastic_z0 creo_vmip000 que_cs no_rn se_p0000000 merecen_vmip000 que_cs les_pp000000 ayudemos_vmsp000 de_sp000 ninguna_di0000 manera_nc0s000 ,_fc andreu_nc0s000 dijo_vmis000 que_cs no_rn",había_vaii000,relaciones_nc0p000 y_cc espero_vmip000 que_cs así_rg siga_vmsp000,other,Twitter,1.2444909,41.1188827,22,10
singular,videos,tail.setting,Zaragoza,Aragon,absent,East,Zaragoza,"""_fe me_pp000000 lo_pp000000 estoy_vmip000 tomando_vmg0000 enserio_nc0s000 ""_fe ""_fe",habrá_vaif000,"videos_nc0p000 más_rg seguido_aq0000 ""_fe barbararbelieve_vmm0000 httpst.cowoivjjyhlm_nc0s000",other,Twitter,-0.8890853,41.6488226,50,6
singular,abarcas,tail.setting,Huesca,Aragón,present,East,Oliván,: y después de la guerra no ,había, ni abarcas ni zapatos de goma ni leches.,other,Coser,-0.3020749,42.5755307,34,7
singular,casas,tail.setting,A Coruña,Galicia,absent,North,A Coruña,finalmente_rg sí_rg,habrá_vaif000,casas_nc0p000 regionales_aq0000 este_dd0000 año_nc0s000 httpst.co8qylzwppwj_z0,other,Twitter,-8.4115401,43.3623436,40,5
singular,warlords,head,Sevilla,Andalusia,absent,South,Seville,como_cs expansión_nc0s000 no_rn es_vsip000 que_cs me_pp000000,haya_vasp000,"gustado_vmp0000 mucho_rg ,_fc pero_cc la_pp000000 ost_nc0s000 es_vsip000 genial_aq0000 wow_vaip000 warlords_nc0p000 of_np00000 draenor_np00000 soundtrack_np00000 httpst.coo6fvjbs016_z0",other,Twitter,-5.9844589,37.3890924,84,8
singular,fotos,tail.setting,Barcelona,Catalonia,absent,East,Barcelona,txin_txan_nc00000 deirdrepss_nc0p000 herrforehead_nc0s000 hostias_aq0000 cuál_pt000000 xdd_np00000 porque_cs,hubo_vais000,muuuchas_aq0000 fotos_nc0p000 xdd_nc0s000,synthetic.preterit,Twitter,2.1734035,41.3850639,13,5
singular,accidentes,tail.setting,Toledo,Castilla-La-Mancha,absent,Center,La Nava de Ricomalillo,y por áhi ,ha habido, unos accidentes...,other,Coser,-4.9883486,39.6519539,9,10
singular,noches,tail.setting,Albacete,Castilla-La-Mancha,absent,Center,Fuente del Pino,,había,muchas noches que no,other,Coser,-1.2946714,38.5417306,14,6
singular,remolinos,tail.setting,Madrid,Community of Madrid,present,Center,Madrid,si_cs me_p0000000 olvidas_aq0000 no_rn,habrá_vaif000,"remolinos_nc0p000 ,_fc ni_cc altibajos_nc0p000 de_sp000 emociones_nc0p000 vanesamartin_aq0000 __nc0n000",other,Twitter,-3.7037902,40.4167754,43,9
singular,clases,tail.setting,Barcelona,Catalonia,absent,East,Barcelona,albeert_5_z0 siempre_rg,hubo_vais000,clases_nc0p000 jajaja_aq0000,synthetic.preterit,Twitter,2.1734035,41.3850639,7,6
singular,barreños,tail.setting,Guadalajara,Castilla-La-Mancha,absent,Center,Yebra,"cuando llegaban las fiestas, pos ",había, unos barreños grandes,other,Coser,-2.9663075,40.3564009,14,8
singular,toros,head,Madrid,Comunidad de Madrid,absent,Center,Humanes de Madrid,pues solo ,había," toros el lunes y el martes, el lunes",other,Coser,-3.8209585,40.2596169,32,5
singular,tripitidores,head,Sevilla,Andalusia,absent,South,Seville,de_sp000 toda_di0000 la_da0000 vida_nc0s000,hubo_vais000,tripitidores_nc0p000 de_sp000 curso_nc0s000 ._fplo_da0000 que_pr000000 hay_vaip000 que_cs hacer_vmn0000 es_vsip000 no_rn comprarles_vmip000 la_da0000 moto_nc0s000 para_sp000 reyes_nc0p000 ._fp#terceraselecciones_nc0p000,synthetic.preterit,Twitter,-5.9844589,37.3890924,86,12
singular,noticias,tail.setting,Madrid,Community of Madrid,present,Center,Madrid,buena_aq0000 noticia_nc0s000 el_da0000 que_pr000000 no_rn,haya_vasp000,noticias_nc0p000 de_sp000 nuestro_dp0000 atletismo_nc0s000 desde_sp000 rio_nc0s000 ..._fs ellos_pp000000 siguen_vmip000 su_dp0000 preparación_nc0s000 y_cc concentrados_aq0000 en_sp000 su_dp0000 trabajo_nc0s000 ..._fs ánimo_nc0s000 !!!_aq0000,other,Twitter,-3.7037902,40.4167754,106,8
singular,medios,tail.setting,A Coruña,Galicia,present,North,A Coruña,me_p0000000 parece_vmip000 incomprensible_aq0000 que_cs no_rn,haya_vasp000,medios_nc0p000 suficientes_aq0000 para_sp000 localizar_vmn0000 a_sp000 los_da0000 pirómanos_nc0p000 o_cc a_sp000 quienes_pr000000 provocan_vmip000 los_da0000 incendios._nc0n000,other,Twitter,-8.4115401,43.3623436,79,6
singular,ratos,tail.setting,Asturias,Asturias,absent,North,Oviedo,suicideartifex_nc0p000 pero_cc ese_dd0000 pintaba_vmii000 algo_pi000000 ahí_rg porque_cs yo_pp000000,había_vaii000,ratos_nc0p000 que_pr000000 hasta_rg me_p0000000 olvidaba_vmii000 completamente_rg de_sp000 él_pp000000 xd_nc0n000,other,Twitter,-5.8493887,43.3619145,45,5
singular,turistas,head,Sevilla,Andalusia,absent,South,Seville,playstationes_nc0p000 no_rn sé_vmip000 yo_pp000000 si_cs,habrá_vaif000,"turistas_nc0p000 ,_fc pero_cc pa_sp000 '_fz mí_pp000000 que_cs sus_dp0000 playas_nc0p000 se_pp000000 van_vmip000 a_sp000 llenar_vmn0000 de_sp000 domingueros_nc0p000 !!_aq0000#descubrenomanssky_rg xd_nc0n000",other,Twitter,-5.9844589,37.3890924,85,8
plural,tacos,tail.setting,Madrid,Community of Madrid,absent,Center,Madrid,alvarofierfox_nc0s000,siguen_vmip000 habiendo_vag0000,tacos_nc0p000,other,Twitter,-3.7037902,40.4167754,0,5
singular,clases,tail.setting,Barcelona,Catalonia,absent,East,Sant Feliu de Llobregat,30_z0 goles_nc0p000 de_sp000 guaje7villa_nc0s000 con_sp000 el_da0000 nycfcespanol_nc0s000 en_sp000 48_z0 partidos_nc0p000 ._fpsiempre_rg,hubo_vais000,"clases_nc0p000 ,_fc y_cc villa_vmip000 siempre_rg fue_vsis000 el_da0000 más_rg listo.httpst.contkdwgl6pi_nc0s000",synthetic.preterit,Twitter,2.0494619,41.38467,55,6
singular,sastres,head,Palencia,Castilla y León,absent,Center,Santervás de la Vega,"en palencia, o bien en saldaña ",había, sastres también. ,other,Coser,-4.7989382,42.5058483,11,7
singular,fincas,tail.setting,Palencia,Castilla y León,absent,Center,Olmos de Ojeda,ando se labraba todo con las parejas,había,inclusive años de muchas fincas,other,Coser,-4.4252828,42.7230533,25,6
plural,hombres,head,Barcelona,Catalonia,absent,East,Barcelona,como_cs,pueden_vmip000 haber_van0000,hombres_nc0p000 así_rg de_sp000 asquerosos_nc0p000 xd_nc0n000,other,Twitter,2.1734035,41.3850639,21,7
singular,sitios,tail.setting,Madrid,Community of Madrid,present,Center,Madrid,"oh_pi000000 por_sp000 favor_nc0s000 ,_fc no_rn",había_vaii000,más_rg sitios_nc0p000 en_sp000 los_da0000 que_pr000000 picarme_vmsp000 que_cs en_sp000 el_da0000 pie_nc0s000 y_cc encima_rg me_p0000000 provoca_vmip000 reacción_nc0s000 alérgica_aq0000 ._fpestos_dd0000 arácnidos_nc0p000 ..._fs,other,Twitter,-3.7037902,40.4167754,91,6
singular,fans,head,Madrid,Community of Madrid,absent,Center,Leganés,no_rn entiendo_vmip000 que_cs,haya_vasp000,"fans_nc0p000 de_sp000 agentes_nc0p000 de_sp000 shield_nc0s000 a_sp000 los_da0000 que_pr000000 les_pp000000 caiga_vmsp000 bien_rg ward_nc0s000 ,_fc que_pr000000 asco_nc0s000 de_sp000 tío_nc0s000 joder_i !_fat",other,Twitter,-3.7686545,40.3319506,77,4
singular,homosexuales,head,Córdoba,Andalusia,absent,South,Córdoba,qué_pt000000 más_rg dará_vmif000 que_cs,haya_vasp000,"homosexuales_nc0p000 o_cc no_rn y_cc si_cs te_p0000000 molesta_vmip000 ,_fc te_pp000000 aguantas_vmip000 ._fpcuantas_di0000 cosas_nc0p000 más_rg",other,Twitter,-4.7793835,37.8881751,47,12
singular,concursos,tail.setting,Barcelona,Catalonia,absent,East,Barcelona,alxhabbo_nc0s000 antes_rg,había_vaii000,concursos_nc0p000 y_cc eventos_nc0p000 que_pr000000 no_rn eran_vsii000 de_sp000 los_da0000 baw_nc0n000,other,Twitter,2.1734035,41.3850639,33,9
singular,cojones,tail.setting,Málaga,Andalusia,present,South,Málaga,fenix_granha_nc0s000 es_vsip000 que_cs no_rn,había_vaii000,cojones_nc0p000 de_sp000 meterlo_nc0s000 al_vmip000 final_nc0s000 casi_rg se_p0000000 me_pp000000 he_vaip000 atendido_vmp0000 que_cs subir_vmn0000 encima_rg,other,Twitter,-4.4212655,36.721261,60,7
singular,personas,head,Zamora,Castilla y León,absent,Center,Villalba de Lampreana,porque ,había, algunos que no sabían cargarlos.,other,Coser,-5.639223,41.7430599,33,8
singular,amigos,head,Valladolid,Castile and León,absent,Center,Valladolid,"hedu11_z0 lamadrigueraale_zm rociomdp_nc0s000 vidas_pixeladas_aq0000 no_rn puedo_vmip000 ,_fc",había_vaii000,"amigos_nc0p000 ..._fs panceta_nc0s000 ,_fc morcilla_nc0s000 ,_fc costillas_nc0p000 ,_fc salchichas_nc0p000 ,_fc alitas_nc0p000 de_sp000 pollo_nc0s000 ..._fs",other,Twitter,-4.7245321,41.652251,70,6
singular,personas,head,Madrid,Community of Madrid,present,Center,Madrid,"@aracem_nc0s000 eso_pd000000 mismo_pi000000 he_vaip000 pensado_vmp0000 yo_pp000000 antes_rg ,_fc que_cs no_rn",había_vaii000,más_rg personas_nc0p000 en_sp000 el_da0000 mundo.,other,Twitter,-3.7037902,40.4167754,17,8
singular,personajes,head,Madrid,Community of Madrid,absent,Center,Madrid,"pablojoestar_vmn0000 hatsurobin_nc0s000 no_rn se_pp000000 ,_fc supongo_vmip000 que_cs será_vsif000 más_rg o_cc menos_rg como_cs si_cs fuera_vssi000 el_da0000 inicio_nc0s000 pero_cc con_sp000 cosas_nc0p000 inventadas_aq0000 ._fppara_sp000 que_cs",haya_vasp000,más_rg personajes_nc0p000,other,Twitter,-3.7037902,40.4167754,4,10
singular,lagaradas,tail.setting,Zamora,Castilla y León,absent,Center,Villalba de Lampreana,porque ,había," unas lagaradas que pa qué,",other,Coser,-5.639223,41.7430599,18,9
singular,hoteles,tail.setting,Castellón,Valencian Community,present,East,Castellón de la Plana,como_cs es_vsip000 posible_aq0000 que_cs no_rn,haya_vasp000,hoteles_nc0p000 disponibles_aq0000 en_sp000 motril_aq0000 para_sp000 el_da0000 1314_z0,other,Twitter,-0.0513246,39.9863563,35,7
singular,losas,tail.setting,Guadalajara,Castilla-La-Mancha,absent,Center,Yebra," y, y allí ",había, como unas losas de piedra,other,Coser,-2.9663075,40.3564009,21,5
singular,heridos,tail.setting,Ciudad Real,Castile-La Mancha,present,Center,Tomelloso,marca_nc0s000 marcatmf_np00000 lo_da0000 importante_aq0000 es_vsip000 que_cs no_rn,haya_vasp000,"heridos_nc0p000 ,_fc todo_pi000000 lo_da0000 que_pr000000 sea_vssp000 por_sp000 la_da0000 seguridad_nc0s000 lo_pp000000 veo_vmip000 bien_rg ,_fc lo_da0000 demás_pi000000 puede_vmip000 esperar._nc0p000",other,Twitter,-3.0214475,39.1583745,73,7
singular,haters,head,Granada,Andalusia,absent,South,Granada,y_cc que_cs,haya_vasp000,haters_nc0p000 de_sp000 rafa_nc0s000 en_sp000 su_dp0000 propio_di0000 país_nc0s000 ._fpno_rn nos_p0000000 lo_pp000000 merecemos_vmip000 !_fat,other,Twitter,-3.5985571,37.1773363,47,6
singular,ultras,tail.setting,León,Castile and León,absent,Center,Ponferrada,marioxose_nc00000 azoteblanco1923_z0 alexandritaglok_zm svlserggio_aq0000 __f0 por_sp000 que_cs allí_rg si_cs,había_vaii000,ultras_nc0p000 no_rn la_pp000000 mierda_nc0s000 que_cs tenéis_vmsp000 ahora_rg ._fp ._fp,other,Twitter,-6.598259,42.5499958,34,6
singular,obras,tail.setting,Segovia,Castilla y León,absent,Center,Muñoveros, aquí ,hubo, obras preciosas. ,synthetic.preterit,Coser,-3.9515009,41.1724717,13,5
singular,médico.y.veterinario,head,Teruel,Aragón,absent,East,Bronchales,siempre ,ha habido, médico y veterinario,other,Coser,-1.5880904,40.5088378,21,20
singular,personas,head,Lugo,Galicia,absent,North,Lugo,es_vsip000 inevitable_aq0000 y_cc no_rn importa_vmip000 ._fpsiempre_rg,habrá_vaif000,"personas_nc0p000 que_pr000000 crean_vmsp000 en_sp000 conspiraciones_nc0p000 ..._fs etiénne_nc0s000 davignon_aq0000 ,_fc presidente_nc0s000 ..._fs httpst.cofrigbzvwqb_nc0s000",other,Twitter,-7.5567582,43.0097384,86,8
singular,agujeros,tail.setting,Almería,Andalusia,absent,South,Almería,ligo_nc0s000,puede_vmip000 haber_van0000,probado_aq0000 que_cs hay_vaip000 agujeros_nc0p000 negros_aq0000 primordiales_aq0000 httpst.co7iiwnoo2nc_z0 vía_nc0s000 cienciaplus_nc0n000,other,Twitter,-2.4637136,36.834047,72,8
singular,clases,tail.setting,A Coruña,Galicia,absent,North,Santiago de Compostela,"enhorabuena_nc00000 por_sp000 tu_dp0000 champions_nc0s000 particular_aq0000 ,_fc siempre_rg",hubo_vais000,clases_nc0p000 httpst.coh4sh1pjj52_nc0s000,synthetic.preterit,Twitter,-8.5448445,42.8782132,20,6
singular,turistas,head,Barcelona,Catalonia,present,East,Barcelona,"los_da0000 brasileños_nc0p000 son_vsip000 un_di0000 poco_rg cortos_aq0000 ,_fc será_vsif000 que_cs no_rn",habrá_vaif000,turistas_nc0p000 ..._fs httpst.co1rmqkcn9mv_nc0s000,other,Twitter,2.1734035,41.3850639,24,8
singular,actuaciones,tail.setting,Cádiz,Andalusia,absent,South,Benalup-Casas Viejas,,había_vaii000,actuaciones_nc0p000 mejores_aq0000 pero_cc adoro_vmip000 esta_dd0000 canción_nc0s000 y_cc pasó_vmis000 a_sp000 2m_z0 de_sp000 mi_dp0000 ..._fs sigo_vmip000 en_sp000 una_di0000 nube_nc0s000 httpst.cotnj8mqeau7_nc0s000,other,Twitter,-5.8166423,36.3431854,91,11
singular,cosas,tail.setting,Sevilla,Andalusia,absent,South,Seville,daamidelgado_aq0000 torrenet_nc0s000 aquí_rg en_sp000 el_da0000 92_z0,hubo_vais000,"cosas_nc0p000 que_pr000000 estuvieron_vmis000 listas_aq0000 sobre_sp000 la_da0000 bocina_nc0s000 ,_fc pero_cc el_da0000 éxito_nc0s000 en_sp000 sevilla_nc0s000 y_cc barcelona_vmm0000 fue_vsis000 brutal_aq0000",synthetic.preterit,Twitter,-5.9844589,37.3890924,88,5
singular,virales,tail.setting,Biscay,Basque Country,absent,North,Bilbao,cuántas_pt000000 cosas_nc0p000,puede_vmip000 haber_van0000,virales_nc0p000 a_sp000 lo_da0000 largo_aq0000 del_sp000 día_nc0s000 palabras_nc0p000 que_pr000000 se_p0000000 desgastan_vmip000 por_sp000 el_da0000 uso._nc0s000,other,Twitter,-2.9349852,43.2630126,57,7
singular,veces,tail.setting,Navarra,Navarra,absent,North,Tudela,me_p0000000 jode_vmip000 que_cs,haya_vasp000,veces_nc0p000 que_pr000000 no_rn me_p0000000 acuerde_vmsp000 de_sp000 tu_dp0000 voz_nc0s000 ni_cc de_sp000 tu_dp0000 risa_nc0s000 y_cc sobretodo_aq0000 el_da0000 echarte_nc0s000 tanto_rg de_sp000 menos_rg y_cc no_rn poder_vmn0000 o_cc no_rn saber_vmn0000 hacer_vmn0000 nada._np00000,other,Twitter,-1.6063169,42.0613816,114,5
singular,carteles,tail.setting,Granada,Andalusia,absent,South,Granada,@nosoylagente_sp000 lo_da0000 gracioso_aq0000 es_vsip000 que_cs en_sp000 mi_dp0000 facultad_nc0s000,había_vaii000,"carteles_nc0p000 enorms_aq0000 aclamando_vmg0000 al_rg catalán_aq0000 como_cs lengua_nc0s000 europea_aq0000 ._fppensé_vmis000 que_cs era_vsii000 broma_nc0s000 ,_fc pero_cc no",other,Twitter,-3.5985571,37.1773363,74,8
singular,tocamientos,tail.setting,Álava,Basque Country,absent,North,Vitoria-Gasteiz,"víctima_nc0s000 del_sp000 ex_aq0000 párraco_nc0s000 de_sp000 can_np00000 picafort_nc0s000 :_fd '_fz me_pp000000 encerraba_vmii000 en_sp000 su_dp0000 habitación_nc0s000 ,_fc donde_pr000000",había_vaii000,tocamientos_nc0p000 y_cc abusos_nc0p000 '_fz https://t.co/weewkccevj,other,Twitter,-2.6817918,42.8591656,35,11
plural,confusiones,tail.setting,Alicante,Valencian Community,present,East,Alicante,zetaeme_rap94_nc00000 es_vsip000 para_sp000 que_cs no_rn,hayan_vasp000,confusiones_nc0p000 -lrb-_aq0000,other,Twitter,-0.4906855,38.3459963,6,11
plural,edificios,tail.setting,Ciudad Real,Castilla-La-Mancha,present,Center,Argamasilla de Alba," aquí pues según la historia, él tenía un caballo y como no ",habían,", a lo mejor, no ",other,Coser,-3.0951959000000002,39.1264201,17,9
plural,cosas,tail.setting,Murcia,Region of Murcia,absent,South,Murcia,pandicorn88_z0 pffff_vsis000 a_sp000 saber_vmn0000 jajaja_nc00000,deben_vmip000 haber_van0000,cosas_nc0p000 del_sp000 ancestro_nc0s000,other,Twitter,-1.1306544,37.9922399,13,5
plural,cajas,tail.setting,Barcelona,Catalonia,absent,East,Barcelona,"i_nc0s000 ,_fc claro_rg ,_fc vam_nc0s000 flipar_vmn0000 !_fatpatates_nc0p000 gratis_rg !_fati_nc0s000 bones_aq0000 !_fati_nc0s000 aquí_rg que_cs mon_np00000 avi_np00000 va_vmip000 fer_nc0s000 la_da0000 pregunta_nc0s000 del_sp000 segle_vsn0000 ..._fs ""_fe hijo_nc0s000 ,_fc",habían_vaii000,"más_rg cajas_nc0p000 ""_fe",other,Twitter,2.1734035,41.3850639,6,5
singular,panes,tail.setting,Palencia,Castilla y León,absent,Center,Olmos de Ojeda,aquellos panes de dos kilos que ,había, antiguamente,other,Coser,-4.4252828,42.7230533,13,5
singular,sastres,head,Zaragoza,Aragón,absent,East,Almonacid de la Cuba,"pero vamos, ",había, sastres también. ,other,Coser,-0.7922148,41.2809656,11,7
singular,cuarteles,tail.setting,Barcelona,Cataluña,absent,East,Valeria,,había, dos cuarteles ,other,Coser,-2.1472722,39.8124748,6,9
singular,leyes,head,Guadalajara,Castilla-La-Mancha,present,Center,Yebra,entonces no ,había, leyes,other,Coser,-2.9663075,40.3564009,1,5
singular,milagros,tail.setting,Madrid,Community of Madrid,absent,Center,Madrid,para_sp000 no_rn olvidar_vmn0000 nunca_rg ._fptambién_rg,hubo_vais000,milagros_nc0p000 ._fphttpst.comasqzfb6hd_nc0s000,synthetic.preterit,Twitter,-3.7037902,40.4167754,15,8
singular,problemas,tail.setting,Valladolid,Castile and León,absent,Center,Boecillo,"porque_cs sino_cc acostumbrarás_vmn0000 a_sp000 esa_dd0000 persona_nc0s000 a_sp000 verte_nc0s000 y_cc actuar_vmn0000 contigo_nc0s000 de_sp000 una_di0000 manera_nc0s000 ,_fc que_pr000000 a_sp000 la_da0000 larga_aq0000 no_rn te_p0000000 gustara_vmsi000 y_cc",habrá_vaif000,problemas_nc0p000 ._fpconsejo._nc0s000,other,Twitter,-4.7005972,41.5415157,3,9
singular,cerdos,head,Guadalajara,Castilla-La-Mancha,absent,Center,Yebra,,había," años que a lo mejor mataban dos cerdos,",other,Coser,-2.9663075,40.3564009,34,6
singular,camisas,tail.setting,Málaga,Andalucía,absent,South,Antequera,me acuerdo que los camisones ,hubo," algunos que me hice de, de sus camisas, que era todo esto de tira bordada, ",synthetic.preterit,Coser,-4.5593676,37.020001,69,7
singular,jugadores,head,Huelva,Andalusia,absent,South,Huelva,"cdb_ebenitez_nc0s000 pabloma_4_z0 cuidadlo_vmip000 bien_rg ,_fc que_pr000000 los_pp000000",podrá_vmif000 haber_van0000,mejores_aq0000 jugadores_nc0p000 -lrb-_np00000 pocos_di0000 -rrb-_np00000 pero_cc tan_rg buena_aq0000 persona_nc0s000 es_vsip000 difícil.mucha_aq0000 suerte_nc0s000 pablito_nc0s000,other,Twitter,-6.9447224,37.261421,81,9
singular,matarifes,head,Alicante,Comunidad Valenciana,absent,East,Belmonte, ,había, más tres [matarifes],other,Coser,-2.7055583,39.5579559,12,9
singular,sobrecostes,tail.setting,Álava,Basque Country,absent,North,Vitoria-Gasteiz,compromís_nc0p000 quiere_vmip000 que_cs pastor_nc0s000 aclare_vmsp000 si_cs,hubo_vais000,sobrecostes_nc0p000 en_sp000 el_da0000 ave_nc0s000 alicantemurcia_np00000 httpst.coaayvurr96m_z0 vía_nc0s000 eldiarioes_aq0000,synthetic.preterit,Twitter,-2.6817918,42.8591656,60,11
singular,polvos,tail.setting,Madrid,Community of Madrid,absent,Center,Madrid,"no_rn es_vsip000 por_sp000 joder_i ni_cc llamar_vmn0000 puta_nc0s000 a_sp000 nadie_pi000000 ,_fc pero_cc te_p0000000 marchaste_vmsp000 y_cc",hubo_vais000,polvos_nc0p000 que_pr000000 no_rn te_p0000000 cobraste._vmip000,synthetic.preterit,Twitter,-3.7037902,40.4167754,20,6
singular,ganas,tail.setting,Madrid,Community of Madrid,present,Center,Madrid,estar_z0 viendo_vmg0000 #alertacobra_np00000 y_cc que_pr000000 abajo_rg anuncien_vmm0000 #quantico_nc0s000 no_rn,puede_vmip000 haber_van0000,más_rg ganas_nc0p000 de_sp000 lunes_w #yosoyquantico_aq0000 @cuatro_nc0s000,other,Twitter,-3.7037902,40.4167754,36,5
singular,errores,tail.setting,Badajoz,Extremadura,absent,South,Tierra de Badajoz,inf_entropy_nc00000 marslain_nc00000 todos_pi000000 hemos_vaip000 escuchado_vmp0000 historias_nc0p000 pasadas_aq0000 en_sp000 los_da0000 hospitales_nc0p000 en_sp000 los_da0000 que_pr000000,hubo_vais000,errores_nc0p000 y_cc nadie_pi000000 dijo_vmis000 ni_rg mu_nc0n000,synthetic.preterit,Twitter,-6.9706535,38.8794495,19,7
plural,videos,tail.setting,Alicante,Valencian Community,absent,East,Alicante,@mohammadhasankl_np00000 nos_p0000000 estas_dd0000 intentando_vmg0000 decir_vmn0000 que_cs,habrán_vaif000,videos_nc0p000 de_sp000 cocina_nc0s000 con_sp000 muya_nc0s000 ?_fitjajajjaj,other,Twitter,-0.4906855,38.3459963,21,6
plural,vagonetas,head,Castellón,Comunidad Valenciana,absent,East,Lucena del Cid,e sa- | hacían] montones y ,habían," vagonetas, vagonetas",other,Coser,-0.281068,40.1368846,3,9
singular,confusiones,tail.setting,A Coruña,Galicia,present,North,Santiago de Compostela,tamiroff_aq0000 __f0 gerardotc_nc0p000 para_sp000 que_cs no_rn,haya_vasp000,confusiones_nc0p000 yo_pp000000 a_sp000 este_pd000000 le_pp000000 llamaría_vmic000 gerardopc_aq0000 y_cc al_aq0000 fake_np00000 gerardopp_aq0000,other,Twitter,-8.5448445,42.8782132,52,11
singular,elecciones,tail.setting,Segovia,Castile and León,absent,Center,Segovia,"""_fe si_cs ciudadanos_nc0p000 no_rn cambia_vmip000 de_sp000 posición_nc0s000 ,_fc",habrá_vaif000,"elecciones_nc0p000 ""_fe diario_aq0000 público_nc0s000 httpst.connoh3ctmd2_nc0s000",other,Twitter,-4.1088069,40.9429032,37,10
singular,carretes,head,Sevilla,Andalusia,absent,South,Seville,si_cs no_rn te_p0000000 has_vaip000 decepcionado_aq0000 al_nc0n000 abrir_vmn0000 una_di0000 lata_nc0s000 de_sp000 galletas_nc0p000 y_cc sólo_rg,había_vaii000,carretes_nc0p000 de_sp000 hilo_nc0s000 ..._fs no_rn has_vaip000 tenido_vmp0000 infancia._nc0s000,other,Twitter,-5.9844589,37.3890924,36,8
singular,humanos,head,Málaga,Andalusia,absent,South,Málaga,y_cc,habrá_vaif000,"humanos_nc0p000 que_cs graben_vmsp000 con_sp000 el_da0000 móvil_nc0s000 la_da0000 final_nc0s000 de_sp000 100_z0 metros_nc0p000 lisos_aq0000 ,_fc en_sp000 directo_aq0000 ._fpdel_sp000 revés._np00000",other,Twitter,-4.4212655,36.721261,75,7
singular,figuras,tail.setting,Madrid,Community of Madrid,absent,Center,Getafe,@yuluga_np00000,sigue_vmip000 habiendo_vag0000,figuras_nc0p000 de_sp000 objetos_nc0p000 casi_rg,other,Twitter,-3.7323934,40.3082504,16,7
singular,maestros,head,Sevilla,Andalusia,absent,South,Seville,@subversivos__nc0s000 con_sp000 que_cs,haya_vasp000,más_rg maestros_nc0p000 estoy_vmip000 totalmente_rg de_sp000 acuerdo_nc0s000 pero_cc sin_sp000 soldados_nc0p000 quién_pt000000 nos_p0000000 va_vmip000 a_sp000 defender,other,Twitter,-5.9844589,37.3890924,74,8
singular,regalos,tail.setting,Madrid,Community of Madrid,absent,Center,Madrid,estamos_vmip000 de_sp000 lleno_aq0000 preparando_vmg0000 la_da0000 newsletter_nc0s000 oficial_nc0s000 !,_fathabrá_vaif000,regalos_nc0p000 para_sp000 captar_vmn0000 suscriptores_i !_fathttpst.cof12dm7jknp_z0 suscríbete_nc0s000 !_fat,other,Twitter,-3.7037902,40.4167754,53,7
singular,duros,tail.setting,Segovia,Castilla y León,present,Center,Santiuste de San Juan Bautista, porque no ,había, mil duros pa compra,other,Coser,-4.57147,41.1564838,15,5
singular,olimpiadas,tail.setting,Huelva,Andalusia,absent,South,Huelva,y_cc ya_rg está_vmip000 aquí_rg !!!_aq0000y_cc mañana_rg,habrá_vaif000,olimpiadas_nc0p000 en_sp000 directo_aq0000 en_sp000 twitch_np00000 #_np00000 2_z0 especial_aq0000 olimpiadas_aq0000 !!!!_z0 gta_nc0s000 v_np00000 httpst.copjownkgopx_np00000,other,Twitter,-6.9447224,37.261421,66,10
singular,armas,head,Murcia,Region of Murcia,absent,South,Murcia,#aznarwarsm_nc00000 4_z0 aznar_vmn0000 aseguró_vmis000 que_cs,había_vaii000,"armas_nc0p000 de_sp000 destrucción_nc0s000 masiva_aq0000 ._fpcréanme_nc0s000 ,_fc dijo_vmis000 ._fpy_cc de_sp000 su_dp0000 participación_nc0s000 ha_vaip000 obtenido_vmp0000 grandes_aq0000 beneficios_nc0p000 ._fp",other,Twitter,-1.1306544,37.9922399,86,5
singular,pruebas,tail.setting,Madrid,Community of Madrid,absent,Center,Madrid,educasado_aq0000,había_vaii000,pruebas_nc0p000 de_sp000 armstrong_nc0s000,other,Twitter,-3.7037902,40.4167754,13,7
singular,anuncios,tail.setting,Asturias,Asturias,absent,North,Avilés,"como_cs me_p0000000 jode_vmip000 que_cs hoy_rg que_pr000000 es_vsip000 la_da0000 final_nc0s000 ,_fc",siga_vmm0000 habiendo_vag0000,anuncios_nc0p000,other,Twitter,-5.9246653,43.5579523,0,8
singular,veces,tail.setting,Madrid,Comunidad de Madrid,absent,Center,Manzanares el Real, y ,había, veces que se les hacía un poquito café y estan-... ,other,Coser,-3.8209585,40.2596169,47,5
singular,cosas,tail.setting,Alicante,Valencian Community,present,East,Alicante,"con_vais000 13_z0 y_cc 14_z0 años_nc0p000 hay_vaip000 cosas_nc0p000 que_pr000000 ignoras_vmip000 ,_fc pero_cc no_rn quiere_vmip000 decir_vmn0000 que_cs no_rn",haya_vasp000,"cosas_nc0p000 que_pr000000 te_p0000000 duelan_vmip000 ,_fc y_cc marquen_vmm0000 ._fp ._fpvosotros_nc0p000 si_cs que_cs no_rn sabéis_vmip000 nada_pi000000 xd_nc0n000",other,Twitter,-0.4906855,38.3459963,55,5
singular,tantos,head,Barcelona,Catalonia,present,East,Barcelona,tacelpirt_aq0000 yo_pp000000 no_rn he_vaip000 hablado_vmp0000 del_sp000 tercer_ao0000 mundo_nc0s000 pero_cc hay_vaip000 que_cs reconocer_vmn0000 que_cs sin_sp000 colaboracionistas_nc0p000 como_pr000000 tu_dp0000 no_rn,habría_vaic000,tantos_nc0p000 independentistas._aq0000,other,Twitter,2.1734035,41.3850639,18,6
singular,personas,head,Sevilla,Andalusia,absent,South,Seville,no_rn dejes_vmip000 de_sp000 creer_vmn0000 en_sp000 el_da0000 amor_nc0s000 solo_aq0000 porque_cs en_sp000 tu_dp0000 camino_nc0s000,hubo_vais000,personas_nc0p000 que_pr000000 no_rn supieron_vmis000 amarte._nc0s000,synthetic.preterit,Twitter,-5.9844589,37.3890924,24,8
singular,medallas,tail.setting,Barcelona,Catalonia,absent,East,Esplugues de Llobregat,sin_sp000 dinero_nc0s000 ni_cc cultura_nc0s000 deportiva_aq0000 cómo_pt000000 quieres_pt000000 que_cs,haya_vasp000,medallas_nc0p000 httpst.cowkjlap5aof_z0 #hacecuatroaños_nc0p000 #jjoo_aq0000,other,Twitter,2.0858115,41.3766912,42,8
singular,imputados,head,Castellón,Valencian Community,present,East,Vilafranca,rivera_nc0s000 exige_vmip000 a_sp000 un_di0000 partido_nc0s000 imputado_aq0000 por_sp000 corrupción_nc0s000 que_pr000000 no_rn,haya_vasp000,imputados_nc0p000 por_sp000 ..._fs httpst.coym135jffzt_nc0s000 by_np00000 carclosa_aq0000 via_np00000 c0nvey_z0,other,Twitter,-0.2576419,40.4297868,51,9
singular,quejas,tail.setting,Barcelona,Catalonia,absent,East,Barcelona,elsevillagrande_nc00000 alvaradoblog_aq0000 sevillafc_nc00000 vmscom_aq0000 entonces_rg se_p0000000 harían_vmic000 colas_np00000 y_cc,habría_vaic000,quejas_nc0p000 por_sp000 ello_pp000000 ._fpnunca_rg llueve_vmip000 a_sp000 gusto_nc0s000 de_sp000 todos_pi000000,other,Twitter,2.1734035,41.3850639,35,6
singular,horas,tail.setting,Navarra,Navarra,present,North,Azcona, y entonces no ,había, ocho horas,other,Coser,-1.9942665,42.7409451,6,5
singular,partidos,head,Málaga,Andalusia,absent,South,Málaga,llorente_aq0000 ayer_rg estuvo_vmis000 espectacular_aq0000 pero_cc,hubo_vais000,partidos_nc0p000 en_sp000 pretemporada_nc0s000 q_zu tmb_nc0s000 tuvo_vmis000 fallos_nc0p000 y_cc no_rn se_p0000000 le_pp000000 critico_vmip000 apenas_rg ..._fs,synthetic.preterit,Twitter,-4.4212655,36.721261,64,8
singular,concursos,tail.setting,Madrid,Community of Madrid,absent,Center,Alcorcón,castyleco_nc0s000 cuando_pr000000,habrá_vaif000,más_rg concursos_nc0p000,other,Twitter,-3.8278443,40.3468454,4,9
plural,cortafuegos,tail.setting,Madrid,Community of Madrid,absent,Center,Madrid,abc_es_vmip000 la_da0000 isla_nc0s000 bonita_aq0000 ._fp ._fpantiguamente_rg,habían_vaii000,cortafuegos_nc0p000 ._fpclaro_rg era_vsii000 en_sp000 los_da0000 tiempos_nc0p000 de_sp000 franco_zm ._fphoy_rg hay_vaip000 muchos_pi000000 inútiles_aq0000 en_sp000 los_da0000 o._np00000 oficiales_aq0000,other,Twitter,-3.7037902,40.4167754,73,11
singular,novedades,tail.setting,Sevilla,Andalusia,absent,South,Seville,atentos_aq0000 a_sp000 #abengoa_np00000,puede_vmip000 haber_van0000,novedades_nc0p000 a_sp000 lo_da0000 largo_aq0000 del_sp000 día_nc0s000 sobre_sp000 el_da0000 acuerdo_nc0s000 para_sp000 evitar_vmn0000 el_da0000 concurso_nc0s000 de_sp000 acreedores._nc0s000,other,Twitter,-5.9844589,37.3890924,75,9
singular,sorpresas,tail.setting,Barcelona,Catalonia,absent,East,Barcelona,"gracias_nc0p000 a_sp000 todos_pi000000 por_sp000 estar_vmn0000 en_sp000 el_da0000 directo_aq0000 poco_rg a_sp000 poco_pi000000 vamos_vmip000 siendo_vsg0000 más_rg ,_fc prontito_nc0s000",habrá_vaif000,"sorpresas_nc0p000 ,_fc sorteitos_aq0000 y_cc cosas_nc0p000 guays_vmsp000 !_fatmil_dn0000 graciasss_nc0p000 &_f0 lt3_nc0n000",other,Twitter,2.1734035,41.3850639,44,9
plural,campos,tail.setting,Barcelona,Catalonia,absent,East,Barcelona,que_cs se_p0000000 celebren_vmsp000 unas_di0000 olimpiadas_nc0p000 y_cc,hayan_vasp000,"campos_nc0p000 tan_rg pésimos_aq0000 como_cs en_sp000 el_da0000 que_pr000000 ha_vaip000 jugado_vmp0000 brasil_aq0000 ,_fc es_vsip000 una_di0000 vergüenza_nc0s000 ._fp#jjoo_nc0s000 2016_z0",other,Twitter,2.1734035,41.3850639,75,6
singular,mentes,head,Biscay,Basque Country,absent,North,Bilbao,mientras_cs gobiernos_nc0p000 partidos_nc0p000 y_cc políticos_nc0p000 q_zu secunden_vmip000 promocionen_vmm0000 el_da0000 fútbol_nc0s000,seguirá_vmif000 habiendo_vag0000,mentes_nc0p000 enfermas_aq0000 familias_nc0p000 en_sp000 ruina_nc0s000 pagan_vmip000 los_da0000 hijxs_nc0n000,other,Twitter,-2.9349852,43.2630126,43,6
singular,bolas,tail.setting,Córdoba,Andalusia,absent,South,Córdoba,para_sp000 la_da0000 final_nc0s000 también_rg se_p0000000 hizo_vmis000 sorteo_nc0s000 y_cc,había_vaii000,bolas_nc0p000 calientes_aq0000 no_rn más_rg patético_aq0000 no_rn se_p0000000 puede_vmip000 ser_vsn0000 tio_nc0s000 httpst.cofurndmbcba_nc0s000,other,Twitter,-4.7793835,37.8881751,66,5
singular,padres,head,León,Castilla y León,absent,Center,Lorenzana,,había, padres.,other,Coser,-5.6319946,42.668913,2,6
singular,gilipollas,head,Madrid,Community of Madrid,absent,Center,Madrid,pazborisb_nc0s000 que_cs,haya_vasp000,gilipollas_nc0p000 en_sp000 todos_di0000 los_da0000 lados_nc0p000 no_rn lo_pp000000 hace_vmip000 un_di0000 problema_nc0s000,other,Twitter,-3.7037902,40.4167754,42,10
singular,casos,tail.setting,Madrid,Comunidad de Madrid,absent,Center,Manzanares el Real,,había,muchos casos,other,Coser,-3.8646893,40.7262858,7,5
singular,matanzas,tail.setting,Cuenca,Castilla-La-Mancha,absent,Center,Villaconejos de Trabaque,,había," matanzas, ",other,Coser,-2.319081,40.4010803,3,8
plural,fantasmas,head,Valencia,Valencian Community,absent,East,Mislata,he_vaip000 soñado_vmp0000 que_cs estaba_vmii000 sola_aq0000 en_sp000 mi_dp0000 casa_nc0s000 y_cc,habían_vaii000,"fantasmas_nc0p000 y_cc en_sp000 el_da0000 sueño_nc0s000 yo_pp000000 decía_vmii000 que_cs todo_pi000000 era_vsii000 un_di0000 sueño_nc0s000 ,_fc así_rg que_pr000000 me_p0000000 dormía_vmii000 para_sp000 intentar_vmn0000 -lrb-_np00000 +_fz -rrb-_np00000",other,Twitter,-0.4184093,39.4766346,93,9
singular,chicas,head,Huesca,Aragón,absent,East,Banastón, por las casas en que ,había, chicas,other,Coser,0.1672026,42.4061618,1,6
singular,ocasiones,tail.setting,Sevilla,Andalusia,absent,South,Seville,shoutsandbites_nc00000 lilitvendetta_aq0000,habrá_vaif000,"más_rg ocasiones_nc0p000 ,_fc claro_rg ._fpla_da0000 próxima_aq0000 ,_fc bdsm_nc0s000 !_fatd_nc0n000",other,Twitter,-5.9844589,37.3890924,31,9
singular,problemas,tail.setting,Madrid,Community of Madrid,absent,Center,Madrid,cuidado_nc0s000 con_sp000 los_da0000 arreones_nc0p000 de_sp000 esta_dd0000 gente_nc0s000 que_pr000000 son_vsip000 muy_rg buenos_aq0000 ._fphay_vaip000 que_pr000000 saber_vmn0000 manejar_vmn0000 ese_dd0000 +13_z0 sabiendo_vmg0000 que_cs,puede_vmip000 haber_van0000,problemas_nc0p000 ._fp24_z0 más_rg !!_aq0000,other,Twitter,-3.7037902,40.4167754,9,9
singular,quejas,tail.setting,A Coruña,Galicia,present,North,Santiago de Compostela,ironsil_vmn0000 lo_da0000 que_pr000000 me_pp000000 extraña_vmip000 de_sp000 este_dd0000 juego_nc0s000 es_vsip000 que_cs no_rn,haya_vasp000,quejas_nc0p000 de_sp000 sexismo_nc0s000,other,Twitter,-8.5448445,42.8782132,11,6
singular,casas,tail.setting,Zamora,Castilla y León,absent,Center,Villalba de Lampreana,porque ,había," casas aquí de cuatro criaos,",other,Coser,-5.639223,41.7430599,24,5
singular,tamboreteros,head,León,Castilla y León,absent,Center,Cifuentes de Rueda,pues aquí ,había,", umm, [a-pin: tamboriteros",other,Coser,-5.259629,42.6051574,27,12
singular,curas,head,Palencia,Castilla y León,absent,Center,Astudillo, y además ,había," algunos [curas] por su cuenta, por parroquia",other,Coser,-4.294762,42.1925578,40,5
singular,tiendas,tail.setting,Guipúzcoa,País Vasco,absent,North,Aginaga,,había, tiendas en tolosa que se dedicaban a vende,other,Coser,-2.072594,43.2769345,36,7
singular,dudas,tail.setting,Madrid,Community of Madrid,absent,Center,Madrid,@skarlethor_nc0s000 anda_vmip000 que_cs,había_vaii000,dudas_nc0p000 de_sp000 que_pr000000 iba_vmii000 a_sp000 volver.,other,Twitter,-3.7037902,40.4167754,21,5
singular,desalentadoras,head,Asturias,Asturias,absent,North,Gijón,"está_vmip000 siendo_vsg0000 una_di0000 de_sp000 las_da0000 pretemporadas_aq0000 más_rg tristes_aq0000 de_sp000 los_da0000 últimos_ao0000 años_nc0p000 ,_fc y_cc mira_vmm0000 que_cs las_pp000000",hubo_vais000,desalentadoras_nc0p000 eh_np00000 ..._fs,synthetic.preterit,Twitter,-5.6611195,43.5322015,7,14
singular,madridistas,head,Barcelona,Catalonia,absent,East,Barcelona,fcbkase_vmsi000 80_z0 millones_nc0p000 costó_vmis000 suarez_aq0000 ..._fs,hubo_vais000,madridistas_nc0p000 que_pr000000 se_p0000000 reían._vmsp000,synthetic.preterit,Twitter,2.1734035,41.3850639,14,11
singular,ganassss,tail.setting,Valencia,Valencian Community,present,East,Valencia,no_rn,puede_vmip000 haber_van0000,más_rg ganassss_nc0p000 lauvlc28_z0 antoniorozco_aq0000 produce_me_np00000 orozcofansite_vmsi000 cuenta_nc0s000 atrás_rg !!!_aq0000,other,Twitter,-0.3762881,39.4699075,65,8
singular,vacas,head,Barcelona,Cataluña,absent,East,Valeria,"aquí va-, vacas ",había," pocas,",other,Coser,-3.853225,39.1668064,7,5
singular,goles,tail.setting,Madrid,Community of Madrid,absent,Center,Madrid,"yomemolo_nc0s000 no_rn te_pp000000 lo_pp000000 estoy_vmip000 echando_vmg0000 en_sp000 cara_nc0s000 ,_fc ni_cc mucho_rg menos_rg ._fpsólo_rg era_vsii000 un_di0000 comentario_nc0s000 ._fppor_sp000 distribución_nc0s000 normal_aq0000",debería_vmic000 haber_van0000,más_rg goles_nc0p000 de_sp000 -lrb-_np00000 12_z0 -rrb-_vmis000,other,Twitter,-3.7037902,40.4167754,22,5
singular,sorpresas,tail.setting,Barcelona,Catalonia,absent,East,Barcelona,así_rg está_vmip000 la_da0000 cosa_nc0s000 después_rg del_sp000 paseo_nc0s000 nocturno_aq0000 ._fpmañana_rg,puede_vmip000 haber_van0000,sorpresas_nc0p000 p_nc0n000 httpst.co6flgyibjhv_nc0n000,other,Twitter,2.1734035,41.3850639,22,9
singular,personas,head,Álava,País Vasco,absent,North,Elburgo/Burgelu,"sí, sí, sí, aquí hasta hace pues treinta años, hasta que se modernizó esto que vinieron la maquinaria, los tractores y eso que... no se ha trabajao treinta o cuarenta años, cuando se trabajaba con animales, pues aquí en este pueblo entonces ",había, unos veintitantos que viviámos de la ganadería y de la tierr,other,Coser,-2.5452497,42.8496919,61,8
singular,indicios,tail.setting,Madrid,Community of Madrid,absent,Center,Madrid,browns_nc00000 nombran_vmsi000 a_sp000 rg3_z0 quarterback_nc00000 titular_aq0000 ap_nc0n000 ya_rg,había_vaii000,numerosos_aq0000 indicios_nc0p000 que_pr000000 apuntaban_vmii000 a_sp000 que_cs robert_np00000 griffin_np00000 i._np00000 ._fp ._fphttpst.coyyd4h05cwf_nc0s000,other,Twitter,-3.7037902,40.4167754,65,8
singular,tratores,head,León,Castilla y León,present,Center,Almázcara, que no ,había, tratores cuando aquello,other,Coser,-6.5035348,42.594276,16,8
singular,vallas,tail.setting,Barcelona,Catalonia,absent,East,Barcelona,becicarba_nc0s000 rusoazul_nc0s000,sigue_vmip000 habiendo_vag0000,vallas_nc0p000 pero_cc no_rn estamos_vmip000 en_sp000 la_da0000 ue_nc0n000,other,Twitter,2.1734035,41.3850639,25,6
singular,guerras,tail.setting,Madrid,Community of Madrid,present,Center,Madrid,alsina_nc0s000 niega_vmip000 tensión_nc0s000 con_sp000 herrera_nc0s000 '_fz no_rn,hubo_vais000,"guerras_nc0p000 carlistas_aq0000 ,_fc siempre_rg tuvimos_vmis000 buena_aq0000 relación_nc0s000 '_fz httpst.cofz1axs5fsa",synthetic.preterit,Twitter,-3.7037902,40.4167754,65,7
singular,opciones,tail.setting,Madrid,Community of Madrid,absent,Center,Madrid,"buena_aq0000 victoria_nc0s000 de_sp000 croacia_nc0s000 ..._fs si_cs somos_vsip000 terceros_ao0000 ,_fc",habrá_vaif000,más_rg opciones_nc0p000 de_sp000 final_nc0s000 que_cs segundos_ao0000 o_cc cuartos._nc0n000,other,Twitter,-3.7037902,40.4167754,37,8
plural,cosas,tail.setting,Barcelona,Catalonia,absent,East,Barcelona,que_cs,habían_vaii000,cosas_nc0p000 guays_aq0000 pero_cc parecía_vmii000 una_di0000 parte_nc0s000 2_z0 cutre._vmip000,other,Twitter,2.1734035,41.3850639,38,5
singular,personas,head,Huesca,Aragón,absent,East,Banastón,y ,había," algunos que corrían, pa ir los primeros, pa ellos recogerlas rápido, ",other,Coser,0.1672026,42.4061618,70,8
singular,juegos,tail.setting,A Coruña,Galicia,absent,North,A Coruña,@thecapicompany_np00000 @tenemos_anchoas_z0 repito_nc0s000 ._fphace_vmip000 6_z0 años_nc0p000 ya_rg,había_vaii000,juegos_nc0p000 basados_aq0000 en_sp000 gps_nc0s000 que_pr000000 motivaban_vmii000 a_sp000 la_da0000 gente_nc0s000 a_sp000 andar_vmn0000,other,Twitter,-8.4115401,43.3623436,48,6
singular,maximas,tail.setting,Asturias,Asturias,absent,North,Oviedo,"#buenos_nc0p000 dias_nc0n000 ,_fc hoy_rg",habrá_vaif000,maximas_nc0p000 de_sp000 28c_z0 y_cc mínimas_aq0000 de_sp000 13c_z0 en_sp000 #oviedo_aq0000,other,Twitter,-5.8493887,43.3619145,35,7
singular,posiciones,tail.setting,Granada,Andalusia,absent,South,Granada,"jornadaperfecta_nc00000 granadacfweb_np00000 con_sp000 jémez_nc0s000 ,_fc dificíl_vmis000 escoger_vmn0000 un_di0000 11_z0 tipo_nc0s000 ..._fs seguro_rg que_cs",habrá_vaif000,"posiciones_nc0p000 en_sp000 las_da0000 q_np00000 variará_vmif000 mucho_rg -lrb-_aq0000 dfc_np00000 ,_fc mc_np00000 ,_fc dc_np00000 -rrb-_np00000",other,Twitter,-3.5985571,37.1773363,49,10
singular,personas,head,Asturias,Asturias,absent,North,Oviedo,que_cs a_sp000 día_nc0s000 de_sp000 hoy_rg,haya_vasp000,"personas_nc0p000 jóvenes_aq0000 que_pr000000 no_rn ""_fe compartan_vmsp000 ""_fe el_da0000 feminismo_nc0s000 me_p0000000 hace_vmip000 perder_vmn0000 la_pp000000 fe_nc0s000 en_sp000 la_da0000 evolución._nc0s000",other,Twitter,-5.8493887,43.3619145,80,8
singular,juegos,tail.setting,Madrid,Community of Madrid,present,Center,Madrid,"lula_nc0s000 ""_fe no_rn",habría_vaic000,"juegos_nc0p000 olímpicos_aq0000 si_cs no_rn fuera_vssi000 por_sp000 mí_pp000000 ""_fe httpst.coe06oqazozi_z0 #deportes_nc0p000",other,Twitter,-3.7037902,40.4167754,61,6
singular,patas,tail.setting,Huesca,Aragón,absent,East,Banastón, y ,había," unas patas así, llevaba tres patas. ",other,Coser,0.1672026,42.4061618,27,5
singular,juegos,tail.setting,Sevilla,Andalusia,absent,South,Gelves,,debería_vmic000 de_sp000 haber_van0000,"juegos_nc0p000 olímpicos_aq0000 todos_di0000 los_da0000 años_nc0p000 ,_fc que_pr000000 maravilla_vmip000 esto_pd000000 de_sp000 ver_vmn0000 deporte_nc0s000 todo_di0000 el_da0000 día_nc0s000",other,Twitter,-6.0262352,37.3409234,73,6
singular,novedades,tail.setting,Madrid,Community of Madrid,absent,Center,Madrid,9_z0 sotarota_vmip000 cuando_cs,haya_vasp000,novedades_nc0p000 lo_da0000 comunicaremos_vmif000 ._fpsaludos._nc0n000,other,Twitter,-3.7037902,40.4167754,20,9
singular,humanos,head,Huelva,Andalusia,present,South,Huelva,"kplaceholder50_z0 además_rg ,_fc nadie_pi000000 sufriria_vmsp000 los_da0000 nuevos_aq0000 problemas_nc0p000 que_pr000000 surgirían_vmic000 ,_fc porque_cs no_rn",habría_vaic000,más_rg humanos_nc0p000 ._fpes_vsip000 brillante_aq0000,other,Twitter,-6.9447224,37.261421,16,7
plural,armas,head,Barcelona,Catalonia,absent,East,Barcelona,blair_vmn0000 y_cc aznar_vmn0000 no_rn se_p0000000 equivocaron_vmis000 al_nc0n000 jurar_vmn0000 a_sp000 sus_dp0000 respectivos_aq0000 ciudadanos_nc0p000 q_p0000000,habían_vaii000,armas_nc0p000 de_sp000 destrucción_nc0s000 masiva_aq0000 ._fp#irak_vmis000 #pp_nc0s000 httpst.cooswgoqwurw_nc0s000,other,Twitter,2.1734035,41.3850639,53,5
singular,talleres,tail.setting,Cáceres,Extremadura,absent,South,Plasencia,"coria_aq0000 vive_vmip000 su_dp0000 fiesta_nc0s000 grande_aq0000 de_sp000 agosto_w el_da0000 jueves_w turísitico_aq0000 ,_fc 200_z0 artesanos_nc0p000 ofrecen_vmip000 sus_dp0000 productos_nc0p000 .",habrá_vaif000,"talleres_nc0p000 ,_fc burrotaxi_np00000 y_cc sorpresas_nc0p000",other,Twitter,-6.0838065,40.0420955,24,8
singular,farmacias,tail.setting,Murcia,Region of Murcia,absent,South,Murcia,en_sp000 los_da0000 años_nc0p000 70_z0 aún_rg,había_vaii000,"farmacias_nc0p000 que_pr000000 no_rn te_p0000000 vendían_vmii000 ""_fe la_da0000 pildora_nc0s000 ""_fe y_cc las_da0000 que_pr000000 lo_da0000 hacían_vmii000 te_pp000000 ""_fe fichaban_vmii000 ""_fe en_sp000 un_di0000 registro_nc0s000 httpst.cocifaouwgnv_nc0s000",other,Twitter,-1.1306544,37.9922399,104,9
singular,momentos,tail.setting,Córdoba,Andalusia,absent,South,Córdoba,amaliaprieto21_z0 #day_nc00000 18_z0 #dengekidaisy_p0000000,había_vaii000,momentos_nc0p000 que_pr000000 me_pp000000 perdía_vmii000 en_sp000 los_da0000 diálogos_nc0p000 xd_vmis000 httpst.cob1uyl5rdof_nc0s000,other,Twitter,-4.7793835,37.8881751,53,8
singular,cunas,tail.setting,Guipúzcoa,País Vasco,present,North,Gabiria,"el que tenía-, aquí, no ",había, cunas.,other,Coser,-2.279352,43.0505823,2,5
singular,necesidades,tail.setting,Ciudad Real,Castilla-La-Mancha,absent,Center,Argamasilla de Alba, y hacer to las necesidades que ,había," del campo, a a",other,Coser,-3.0951959000000002,39.1264201,15,11
singular,vecinos,head,León,Castilla y León,absent,Center,Almázcara,que,había,"más, más vecinos ",other,Coser,-6.5035348,42.594276,10,7
singular,veterinario,head,Jaén,Andalucía,absent,South,Caleruela,antiguamente ,había, mu pocos veterinario,other,Coser,-5.2560383,39.874597,10,11
plural,toros,head,Barcelona,Catalonia,absent,East,Barcelona,acabo_nc0s000 de_sp000 llegar_vmn0000 y_cc,siguen_vmip000 habiendo_vag0000,"toros_nc0p000 y_cc el_da0000 inhumano_aq0000 que_pr000000 esta_dd0000 toreando_vmg0000 le_pp000000 ha_vaip000 clavado_vmp0000 3_z0 espadas_nc0p000 ,_fc 3_z0 espadas_nc0p000 ,_fc penoso_aq0000 tete_grey_nc00000",other,Twitter,2.1734035,41.3850639,82,5
singular,alimentos,tail.setting,Murcia,Region of Murcia,absent,South,Cartagena,padre_nc0s000 de_sp000 la_da0000 gloria_nc0s000 te_p0000000 pido_vmip000 que_cs,haya_vasp000,alimentos_nc0p000 en_sp000 cada_di0000 hogar_nc0s000 de_sp000 venezuela_nc0s000 httpst.cotlag3hslhb_z0,other,Twitter,-0.9965839,37.6256827,47,9
singular,cenizas,tail.setting,Madrid,Community of Madrid,absent,Center,Alcalá de Henares,"""_fe donde_pr000000 solo_rg",había_vaii000,"cenizas_nc0p000 levante_vmsp000 un_di0000 imperio_nc0s000 ""_fe httpst.copibwutaeuk_nc0s000",other,Twitter,-3.3635421,40.4819791,41,7
plural,cantantes,head,Madrid,Community of Madrid,absent,Center,Madrid,@richard_pena_m_nc0s000 no_rn sabía_vmii000 ke_pi000000,habían_vaii000,peores_aq0000 cantantes_nc0p000 ke_np00000 tú_pp000000 #firstdates_vmip000 104_z0,other,Twitter,-3.7037902,40.4167754,29,9
singular,cortes,tail.setting,Toledo,Castile-La Mancha,absent,Center,Toledo,republica56_z0 cantabriamiguel_np00000 pero_cc antes_rg,debe_vmip000 haber_van0000,cortes_nc0p000 constituyentes_aq0000,other,Twitter,-4.0273231,39.8628316,15,6
singular,ladrones,head,Cáceres,Extremadura,absent,South,Jarandilla de la Vera,pues claro que,había,[ladrones],other,Coser,-5.6602562,40.1286709,2,8
singular,eliminatorias,tail.setting,Madrid,Community of Madrid,absent,Center,Madrid,obviamente_rg,debería_vmic000 haber_van0000,eliminatorias_nc0p000 ._fphttpst.cofxhxjnfr7s_nc0n000,other,Twitter,-3.7037902,40.4167754,15,13
singular,sitios,tail.setting,Ciudad Real,Castilla-La-Mancha,absent,Center,Porzuna, ,había, sitios que a lo mejor hacían bromas los amigos ,other,Coser,-4.1552154,39.1468093,42,6
singular,palmadas,tail.setting,Sevilla,Andalusia,absent,South,Seville,carcasor_nc0s000 nachofabiani_np00000 no_rn seas_vmii000 maaalo_nc0s000 ._fpotros_di0000 renunciamos_vmsp000 en_sp000 su_dp0000 día_nc0s000 y_cc tmpco_aq0000,hubo_vais000,palmadas_nc0p000 ._fprenuncia_nc0s000 ante_sp000 abuso_nc0s000 laboral_aq0000 y_cc recibe_vmip000 comprensión_nc0s000,synthetic.preterit,Twitter,-5.9844589,37.3890924,42,8
singular,granadas,tail.setting,Barcelona,Catalonia,absent,East,Barcelona,"christian_vmip000 estrosi_nc0s000 ,_fc presidente_nc0s000 de_sp000 la_da0000 región_nc0s000 de_sp000 niza_nc0s000 ,_fc dijo_vmis000 que_cs en_sp000 el_da0000 camión_nc0s000 también_rg",había_vaii000,granadas_nc0p000 reportan_vmip000 más_rg de_sp000 70_z0 víctimas_nc0p000,other,Twitter,2.1734035,41.3850639,28,8
singular,problemas,tail.setting,Madrid,Community of Madrid,absent,Center,Madrid,"si_cs le_pp000000 han_vaip000 echado_aq0000 ,_fc",había_vaii000,problemas_nc0p000 con_sp000 la_da0000 directiva_nc0s000 en_sp000 los_da0000 fichajes_nc0p000 -lrb-_np00000 este_dd0000 por_sp000 ejemplo_nc0s000 -rrb-_np00000 y_cc,other,Twitter,-3.7037902,40.4167754,64,9
singular,dudas,tail.setting,Biscay,Basque Country,present,North,Bilbao,"realsociedad_nc0s000 gerorulli_nc0s000 de_sp000 rulli_nc0s000 no_rn se_p0000000 duda_vmip000 #palabraderulli_np00000 ._fpde_vmis000 q_nc0n000 iba_vmii000 a_sp000 venir_vmn0000 ,_fc tampoco_rg",había_vaii000,dudas_nc0p000 en_sp000 esta_dd0000 cuenta_nc0s000 ._fpde_sp000 la_da0000 transparencia_nc0s000 12_z0,other,Twitter,-2.9349852,43.2630126,37,5
singular,opciones,tail.setting,Guadalajara,Castile-La Mancha,absent,Center,Guadalajara,"segunda_ao0000 parte_nc0s000 bastante_rg fea_aq0000 y_cc trabada_aq0000 ,_fc apenas_rg",hubo_vais000,opciones_nc0p000 de_sp000 buscar_vmn0000 el_da0000 empate_nc0s000 ._fpprimer_ao0000 gol_nc0s000 encajado_aq0000 y_cc primera_ao0000 derrota_nc0s000 de_sp000 la_da0000 pretemporada._nc0s000,synthetic.preterit,Twitter,-3.16017,40.632489,73,8
singular,posibilidades,tail.setting,Barcelona,Catalonia,absent,East,Mataró,"lo_da0000 ""_fe bueno_aq0000 ""_fe de_sp000 que_cs llegase_vmsi000 color_nc0s000 kotori_np00000 es_vsip000 que_cs podría_vmic000 venderla_nc0s000 como_cs peluca_nc0s000 de_sp000 kotori_np00000 y_cc",habría_vaic000,más_rg posibilidades_nc0p000 de_sp000 venta._nc0s000,other,Twitter,2.4447406,41.5381124,14,13
singular,cojones,tail.setting,Sevilla,Andalusia,absent,South,Seville,pero_cc qué_dt0000 prisa_nc0s000,había_vaii000,cojones_nc0p000 po_vmip000 nada_pi000000 ..._fs,other,Twitter,-5.9844589,37.3890924,12,7
singular,rebajas,tail.setting,León,Castile and León,absent,Center,Ponferrada,que_cs duro_nc0s000 es_vsip000 que_cs,haya_vasp000,rebajas_nc0p000,other,Twitter,-6.598259,42.5499958,0,7
singular,semejantes,tail.setting,Madrid,Community of Madrid,absent,Center,Madrid,es_vsip000 increìble_aq0000 que_cs,siga_vmsp000 habiendo_vag0000,"semejantes_nc0p000 pensamientos_nc0p000 ,_fc y_cc que_cs muchas_pi000000 mujeres_nc0p000 estén_vmsp000 sometidas_aq0000 a_sp000 normas_nc0p000 ._fp#_vmis000 21dias_nc0n000",other,Twitter,-3.7037902,40.4167754,71,10
singular,bares,tail.setting,A Coruña,Galicia,absent,North,A Coruña,._fpxoantallon_vmis000 en_sp000 trago_nc0s000 corto_aq0000 mientras_cs,haya_vasp000,"bares_nc0p000 -lrb-_pr000000 circulodetizaes_nc0p000 -rrb-_aq0000 ,_fc por_sp000 luispousa_np00000 httpst.comqvqda15so_nc0s000",other,Twitter,-8.4115401,43.3623436,64,5
singular,novedades,tail.setting,Segovia,Castile and León,absent,Center,Segovia,en_sp000 septiembre_w,habrá_vaif000,novedades_nc0p000 en_sp000 formación_nc0s000 ._fpno_rn lo_pp000000 dudes_vmip000 y_cc reserva_vmip000 tu_dp0000 plaza_nc0s000 siguiendo_vmg0000 las_da0000 indicaciones_nc0p000 ._fprt_nc0n000 !!!_aq0000httpst.colborjmfmy8_nc0s000,other,Twitter,-4.1088069,40.9429032,89,9
singular,grupos,head,Barcelona,Catalonia,present,East,Barcelona,confío_vmip000 mucho_rg en_sp000 el_da0000 rol_nc0s000 de_sp000 clau_nc0s000 tbh_np00000 ._fptipo_nc0s000 que_cs espero_vmip000 que_cs no_rn,haya_vasp000,grupos_nc0p000 y_cc que_pr000000 dure._np00000,other,Twitter,2.1734035,41.3850639,12,6
singular,opiniones,tail.setting,Barcelona,Catalonia,absent,East,Barcelona,"bpberta_nc0s000 hombre_nc0s000 ,_fc porque_cs",habrá_vaif000,"opiniones_nc0p000 de_sp000 todo_pi000000 ,_fc no_rn",other,Twitter,2.1734035,41.3850639,13,9
singular,incendios,tail.setting,Madrid,Community of Madrid,present,Center,Madrid,dentro_rg de_sp000 nada_pi000000 cuando_cs no_rn,haya_vasp000,incendios_nc0p000 grandes_aq0000 los_da0000 medios_nc0p000 dirán_vmif000 q_zu hay_vaip000 0_z0 y_cc parecerá_vmif000 q_zu nos_pp000000 rascamos_vmip000 los_da0000 huevos_nc0p000 y_cc el_da0000 coño_i todo_di0000 el_da0000 día._nc0s000,other,Twitter,-3.7037902,40.4167754,93,9
singular,ganas,tail.setting,Ciudad Real,Castile-La Mancha,absent,Center,Valdepeñas,ya_rg,había_vaii000,ganas_nc0p000 #esp_aq0000 #cro_vmip000,other,Twitter,-3.3876074,38.760524,10,5
singular,concursos,tail.setting,Castellón,Valencian Community,absent,East,Oropesa del Mar,nievesherrero_aq0000 __f0 felicidades_nc0p000 por_sp000 el_da0000 nuevo_aq0000 programa_nc0s000 matinal_aq0000 !!_aq0000espero_vmip000 que_cs cuentes_nc0p000 con_sp000 irma_nc0s000 soriano_aq0000 y_cc que_cs,haya_vasp000,concursos_nc0p000 !_fat,other,Twitter,0.1424781,40.0914103,2,9
singular,faenas,tail.setting,Toledo,Castilla-La-Mancha,absent,Center,Tembleque,pero antes es que ,había, muchas [faenas de viñas],other,Coser,-3.5041358,39.6958069,19,6
singular,recaudadojamas,head,Córdoba,Andalusia,absent,South,Lucena,freedomesp_nc0s000 y_cc encima_rg me_p0000000 eliminan_vmip000 el_da0000 ticket_nc0s000 y_cc me_p0000000 borran_vmip000 todo_di0000 lo_da0000 que_pr000000,había_vaii000,recaudadojamas_nc0p000 os_pp000000 vayais_vmip000 con_sp000 ellos_pp000000 son_vsip000 unos_pi000000 estafadores_nc0p000 ._fpfalsos_aq0000 !_fat,other,Twitter,-4.4961008,37.4129332,45,14
singular,dudas,tail.setting,Gipuzkoa,Basque Country,absent,North,Zarautz,"""_fe se_p0000000 sabía_vmii000 ""_fe pues_cs con_sp000 rulli_np00000",había_vaii000,"dudas_nc0p000 ,_fc y_cc era_vsii000 normal_aq0000 que_cs las_da0000 hubiese_vasi000 ..._fs httpst.cou0cq9w2y82_nc0s000",other,Twitter,-2.1713967,43.284771,55,5
singular,entradas,tail.setting,Pontevedra,Galicia,absent,North,Vigo,survivalzombie_nc00000 __f0,sigue_vmip000 habiendo_vag0000,entradas_nc0p000 para_sp000 tui_np00000,other,Twitter,-8.7207268,42.2405989,9,8
singular,bares,tail.setting,León,Castilla y León,absent,Center,Almázcara,y luego ,había," bares, ",other,Coser,-6.5035348,42.594276,3,5
singular,megaevoluciones,tail.setting,Madrid,Community of Madrid,absent,Center,Madrid,"una_di0000 duda_nc0s000 ,_fc en_sp000 pokemon_nc0n000 solluna_aq0000",seguirá_vmif000 habiendo_vag0000,megaevoluciones_nc0p000,other,Twitter,-3.7037902,40.4167754,0,15
singular,gilipollas,head,Madrid,Community of Madrid,absent,Center,Sevilla la Nueva,finguerdequeso_nc0s000 #elhumor_nc0s000 que_pr000000 todavía_rg,habrá_vaif000,gilipollas_nc0p000 que_pr000000 piensen_vmsp000 cosas_nc0p000 raras_aq0000,other,Twitter,-4.0274014,40.3473337,24,10
singular,interes,tail.setting,Sevilla,Andalusia,absent,South,Alcalá de Guadaíra,cuales_pr000000 son_vsip000 las_da0000 cosas_nc0p000 que_pr000000 valorais_vmip000 en_sp000 una_di0000 relacion_nc00000 que_pr000000 se_p0000000 este_dd0000 biem_nc0s000 con_sp000 la_da0000 persona_nc0s000 y_cc que_cs,haya_vasp000,interes_nc0p000 para_sp000 q_np00000 vay_np00000 httpst.cohujz9yty22_z0,other,Twitter,-5.8418054,37.3396769,31,7
singular,balones,tail.setting,Toledo,Castilla-La-Mancha,present,Center,Tembleque,es que no ,había," balones como ahora,",other,Coser,-3.5041358,39.6958069,13,7
singular,guardias,head,Salamanca,Castilla y León,absent,Center,Palencia de Negrilla,porque allí ,había, guardias aquí ,other,Coser,-5.6004627,41.0941655,7,8
singular,cosas,tail.setting,Salamanca,Castilla y León,absent,Center,Palencia de Negrilla,a cuenta de unas cosas que ,ha habido," en salamanca, ",other,Coser,-5.6004627,41.0941655,15,5
singular,analistas,head,Madrid,Community of Madrid,absent,Center,Madrid,eduardo_yanez_nc0s000 salamancaperal_aq0000 yo_pp000000 nunca_rg he_vaip000 entendido_vmp0000 que_cs,haya_vasp000,analistas_nc0p000 que_pr000000 redacten_vmsp000 documentos_nc0p000 kilométricos_aq0000 y_cc ni_rg una_dn0000 línea_nc0s000 de_sp000 código_nc0s000,other,Twitter,-3.7037902,40.4167754,62,9
singular,naves,head,Madrid,Comunidad de Madrid,absent,Center,Sieteiglesias,"en las naves, las naves que ",había, ahora son naves que hace |,other,Coser,-3.5847183,40.9131585,22,5
singular,clases,tail.setting,Madrid,Community of Madrid,absent,Center,Madrid,yo_pp000000 desde_sp000 que_cs estuve_vmis000 estos_dd0000 días_nc0p000 otra_di0000 vez_nc0s000 en_sp000 londres_nc0p000 a_sp000 mi_dp0000 té_nc0n000 ya_rg solo_aq0000 lo_pp000000 llamo_vmip000 cup_nc0s000 of_np00000 tea_np00000 ._fpporque_cs siempre_rg,hubo_vais000,clases_nc0p000 ._fpy_cc yo_pp000000 no_rn tengo_vmip000 de_sp000 eso._nc0s000,synthetic.preterit,Twitter,-3.7037902,40.4167754,22,6
singular,pringles,tail.setting,León,Castile and León,absent,Center,León,he_vaip000 ido_vmp0000 a_sp000 la_da0000 cocina_nc0s000 y_cc,había_vaii000,"pringles_nc0p000 verdes_aq0000 ,_fc soy_vsip000 feliz._rg",other,Twitter,-5.5670959,42.5987263,20,8
singular,vamoss,tail.setting,Soria,Castile and León,absent,Center,Burgo de Osma-Ciudad de Osma,san_nc00000 roques_aq0000 2016_z0,haya_vasp000,vamoss_nc0p000 !!!_aq0000#adisfrutar_vmn0000 #laamistad_nc0s000,other,Twitter,-3.0668549,41.587565,26,6
singular,cosas,tail.setting,Province of Ourense,Galicia,absent,North,Ourense,el_da0000 día_nc0s000 que_cs,haya_vasp000,cosas_nc0p000 que_pr000000 no_rn me_p0000000 molesten_vmip000 ..._fs ese_dd0000 día._nc0s000,other,Twitter,-7.863881,42.3357893,32,5
singular,vacas,head,Salamanca,Castilla y León,present,Center,Alaraz, no ,había," vacas suizas aquí,",other,Coser,-5.2880368,40.7481298,14,5
singular,noches,tail.setting,Madrid,Community of Madrid,absent,Center,Madrid,rooberto96_z0 siempre_rg,habrá_vaif000,noches_nc0p000 por_sp000 la_da0000 zona_nc0s000 en_sp000 las_da0000 que_pr000000 me_pp000000 lo_da0000 puedas_aq0000 decir_vmn0000 hermoso_aq0000 -rrb-_np00000 jajaja_vmip000,other,Twitter,-3.7037902,40.4167754,63,6
singular,bailes,tail.setting,Salamanca,Castilla y León,absent,Center,Alaraz,antes sí ,había," también bailes,",other,Coser,-5.2880368,40.7481298,10,6
singular,cosas,tail.setting,León,Castilla y León,absent,Center,Cifuentes de Rueda,de eso sí,había,muchas cosas.,other,Coser,-5.6319946,42.668913,8,5
plural,guiris,head,Málaga,Andalusia,absent,South,Málaga,"pattmaggot_nc0s000 creo_vmip000 ,_fc y_cc sólo_rg creo_vmip000 ,_fc que_cs estuve_vmis000 ahí_rg hoy_rg con_sp000 mi_dp0000 novia_nc0s000 ,_fc y_cc me_p0000000 lo_pp000000 pasé_vmis000 genial_aq0000 .",habían_vaii000,guiris_nc0p000 jugadores_aq0000 de_sp000 la_da0000 pelota_nc0s000 celulíticos_aq0000 c_nc0n000,other,Twitter,-4.4212655,36.721261,37,6
plural,dudas,tail.setting,Barcelona,Catalonia,absent,East,Badalona,pratsandberg_nc0s000 #elconderespondepdv_aq0000 era_vsii000 mejor_aq0000 k_np00000 se_pp000000 quedara_vmsi000 callado_vmp0000 porque_cs si_cs,habían_vaii000,dudas_nc0p000 ._fpel_da0000 mismo_aq0000 se_p0000000 delató_vmis000 y_cc joaquín_nc0s000 te_p0000000 vi_vmis000 avergonzado_aq0000,other,Twitter,2.2450325,41.4469883,46,5
singular,sorteos,tail.setting,Madrid,Community of Madrid,absent,Center,Madrid,genfuresido_aq0000 no_rn te_p0000000 preocupes_vmsp000,habrá_vaif000,más_rg sorteos_nc0p000 dentro_rg de_sp000 poco_rg -lrb-_np00000 espero_vmip000 -rrb-_np00000,other,Twitter,-3.7037902,40.4167754,38,7
singular,haters,head,Asturias,Asturias,present,North,Gijón,pantuflos_nc0p000 no_rn,puede_vmip000 haber_van0000,haters_nc0p000 de_sp000 indurain_nc0s000 que_cs sean_vssp000 gente_nc0s000 de_sp000 bien_nc0s000,other,Twitter,-5.6611195,43.5322015,35,6
singular,épocas,tail.setting,Huelva,Andalucía,absent,South,Zufre,quí ha- ,hubo," do-, [épocas]",synthetic.preterit,Coser,-6.3408868,37.8328298,8,6
singular,maestras,head,Málaga,Andalucía,absent,South,Antequera,. porque ,había," maestras que enseñaban mucho, ",other,Coser,-4.5593676,37.020001,23,8
singular,estrellas,head,Madrid,Community of Madrid,absent,Center,Madrid,"no_rn se_pp000000 que_cs es_vsip000 mas_rg raro_aq0000 ,_fc que_cs",haya_vasp000,estrellas_nc0p000 en_sp000 madrid_nc0s000 o_cc que_cs formen_vmsp000 un_di0000 triangulo_nc0s000 casi_rg equilátero_aq0000 ._fp#aliens_vsii000 #illuminati_aq0000 httpst.cobsd6pkqgnk_nc0s000,other,Twitter,-3.7037902,40.4167754,93,9
singular,retrasos,tail.setting,Madrid,Community of Madrid,absent,Center,Madrid,600_z0 millones_nc0p000 q_vmis000 estan_nc0n000 n_nc0n000 erario_nc0s000 público_aq0000 cuando_cs s_np00000 fin_nc0s000 era_vsii000 mejorar_vmn0000 #justiciagratuita_nc00000 ._fpcon_sp000 ese_dd0000 dinero_nc0s000 n_nc0n000,habría_vaic000,retrasos_nc0p000 httpst.co3jnhvpjhlp_nc0s000,other,Twitter,-3.7037902,40.4167754,20,8
singular,cosas,tail.setting,Madrid,Comunidad de Madrid,present,Center,Humanes de Madrid,pues como no ,había," entonces cosas como hay hoy, a",other,Coser,-3.5847183,40.9131585,26,5
singular,partes,tail.setting,Madrid,Community of Madrid,absent,Center,Madrid,shielledfox_aq0000 no_rn creo_vmip000 que_cs,haya_vasp000,más_rg partes_nc0p000 pero_cc quedaba_vmii000 mejor_aq0000 así_rg,other,Twitter,-3.7037902,40.4167754,27,6
singular,trabajos,tail.setting,Barcelona,Catalonia,absent,East,Barcelona,que_cs se_p0000000 reivindique_vmsp000 esto_pd000000 y_cc aun_cs,haya_vasp000,trabajos_nc0p000 en_sp000 los_da0000 que_pr000000 cobramos_vmip000 menos_sp000 que_cs los_da0000 hombres_nc0p000 haciendo_vmg0000 lo_pp000000 mismo_pi000000 ..._fs valgame_vmsp000 dios_nc0p000 #mivellomisnormas_aq0000,other,Twitter,2.1734035,41.3850639,95,8
singular,protocolos,tail.setting,Cantabria,Cantabria,present,North,Santander,calidad_nc0s000 de_sp000 los_da0000 alimentos_nc0p000 en_sp000 cuba_nc0s000 :_fd intenso_aq0000 debate_nc0s000 en_sp000 la_da0000 asamblea_nc0s000 -lrb-_np00000 +_fz video_nc0s000 -rrb-_np00000 :_fd no_rn,hubo_vais000,"protocolos_nc0p000 ,_fc ni_cc inquietudes_nc0p000 ..._fs https://t.co/aebk15uixy",synthetic.preterit,Twitter,-3.8099803,43.4623057,45,10
singular,muertes,tail.setting,Barcelona,Catalonia,absent,East,Barcelona,pilar_diz_nc0s000 lo_pp000000 sé_vmip000 ._fpesto_pd000000 140_z0 caracteres_nc0p000 ._fpmientras_cs,haya_vasp000,muertes_nc0p000 no_rn hay_vaip000 nada_pi000000 a_sp000 comparar._nc0p000,other,Twitter,2.1734035,41.3850639,24,7
singular,sospechas,tail.setting,Madrid,Community of Madrid,present,Center,Móstoles,@eldiarioes_nc0n000 algún_di0000 concurso_nc0s000 público_aq0000 en_sp000 este_dd0000 país_nc0s000 donde_pr000000 no_rn,haya_vasp000,"sospechas_nc0p000 de_sp000 amaño_nc0s000 ._fpsería_vsic000 raro_aq0000 encontrar_vmn0000 alguno_pi000000 ,_fc si._nc0n000",other,Twitter,-3.8676291,40.3232129,39,9
singular,personas,head,Palencia,Castile and León,absent,Center,Cisneros,"awas_nc0p000 ,_fc hay_vaip000 cada_di0000 comentario_nc0s000 a_sp000 chicas_nc0p000 por_sp000 no_rn depilarse_vmsp000 ..._fs tela_nc0s000 que_pr000000 aún_rg",haya_vasp000,personas_nc0p000 que_pr000000 les_pp000000 de_sp000 asco_nc0s000 ver_vmn0000 una_di0000 mujer_nc0s000 tal_dd0000 y_cc como_cs es_vsip000 ..._fs,other,Twitter,-4.8585458,42.2210622,48,8
singular,confianzas,tail.setting,Sevilla,Andalusia,absent,South,Seville,a_sp000 partir_vmn0000 de_sp000 ahora_rg solo_aq0000 jugaré_vmif000 wags_nc0p000 vs_rn españoles_aq0000 que_cs conozca_vmsp000 bien_rg bien_rg y_cc sepa_vmm0000 que_cs juegan_vmip000 leggit_nc0s000 y_cc que_cs,haya_vasp000,confianzas_nc0p000 ._fplo_pp000000 demas_vmip000 pedire_nc0s000 cancel_nc0n000,other,Twitter,-5.9844589,37.3890924,22,10
singular,discusiones,tail.setting,Cantabria,Cantabria,present,North,Santander,"vamos_vmip000 a_sp000 ver_vmn0000 digo_vmip000 que_cs vais_vmip000 de_sp000 feministas_aq0000 xq_nc0n000 os_pp000000 considero_vmip000 machirulos_nc0p000 ,_fc si_cs fueseis_vssi000 aliados_nc0p000 es_vsip000 lo_da0000 que_pr000000 os_pp000000 llamaría_vmic000 y_cc no_rn",habría_vaic000,discusiones_nc0p000,other,Twitter,-3.8099803,43.4623057,0,11
singular,personas,head,Asturias,Asturias,absent,North,Avilés,en_sp000 la_da0000 vida_nc0s000 siempre_rg,habrá_vaif000,personas_nc0p000 a_sp000 las_da0000 que_pr000000 no_rn debes_vmip000 de_sp000 dejar_vmn0000 escapar_vmn0000 nunca_rg ..._fs,other,Twitter,-5.9246653,43.5579523,46,8
singular,diferencias,tail.setting,Sevilla,Andalusia,absent,South,Seville,laura_tinajero_np00000 y_cc la_da0000 bola_nc0s000 de_sp000 cristal_nc0s000 ..._fs siempre_rg,hubo_vais000,diferencias_nc0p000,synthetic.preterit,Twitter,-5.9844589,37.3890924,0,11
plural,moralistas,head,Málaga,Andalusia,present,South,Málaga,poronotfound_nc00000 antes_rg no_rn,habían_vaii000,moralistas_nc0p000 ni_cc tantos_nc0p000 '_fz tiquismiquis_nc00000 '_fz ._fp,other,Twitter,-4.4212655,36.721261,29,10
singular,audios,tail.setting,Tarragona,Catalonia,present,East,Tarragona,la_da0000 noche_nc0s000 de_sp000 cristobal_aq0000 soria_nc0s000 compensa_vmip000 de_sp000 sobras_nc0p000 que_pr000000 no_rn,haya_vasp000,audios_nc0p000 de_sp000 rac1_z0 hoy._nc0s000,other,Twitter,1.2444909,41.1188827,13,6
singular,presos,tail.setting,Albacete,Castilla-La-Mancha,absent,Center,Liétor,"de presos, ",había, muchos presos ,other,Coser,-1.9532994,38.5416545,9,6
singular,elecciones,tail.setting,Madrid,Community of Madrid,absent,Center,Madrid,@marionoyam_nc0n000 @agarzon_rg cuando_cs,haya_vasp000,elecciones_nc0p000 libres_aq0000 en_sp000 cuba_nc0s000 que_pr000000 espero_vmip000 que_cs muy_rg pronto_rg el_da0000 partido_nc0s000 del_sp000 régimen_nc0s000 tendrá_vmif000 un_di0000 %_ft residual_aq0000,other,Twitter,-3.7037902,40.4167754,85,10
singular,sesiones,tail.setting,Barcelona,Catalonia,present,East,Barcelona,"y_cc por_sp000 cierto_aq0000 ,_fc no_rn",habrá_vaif000,"más_rg sesiones_nc0p000 de_sp000 una_di0000 tarde_nc0s000 con_sp000 8cho_z0 en_sp000 barcelona_nc00000 ._fpestáis_vmip000 avisados_aq0000 ,_fc que_cs luego_rg me_p0000000 machacáis_vmip000 con_sp000 ""_fe no_rn llegué_vmis000 a_sp000 tiempo_nc0s000 ""_fe !_fat",other,Twitter,2.1734035,41.3850639,104,8
singular,dibujos,tail.setting,León,Castile and León,present,Center,León,poner_vmn0000 la_da0000 tele_nc0s000 mientras_cs desayunas_nc0p000 y_cc que_cs no_rn,haya_vasp000,dibujos_nc0p000 ..._fs,other,Twitter,-5.5670959,42.5987263,4,7
singular,concesiones,tail.setting,Madrid,Community of Madrid,present,Center,Madrid,sobre_sp000 #cataluña_np00000 con_sp000 quien_pr000000 incumple_nc0s000 y_cc va_vmip000 en_sp000 contra_nc0s000 del_sp000 estado_nc0s000 de_sp000 derecho_nc0s000 no_rn,puede_vmip000 haber_van0000,concesiones_nc0p000 alevysoler_aq0000 #desayunostve_rg,other,Twitter,-3.7037902,40.4167754,25,11
singular,elecciones,tail.setting,Palencia,Castilla y León,absent,Center,Astudillo,"sí,",había,"elecciones, ",other,Coser,-4.294762,42.1925578,2,10
singular,gallegos,head,Pontevedra,Galicia,present,North,Pontevedra,luistudanca_aq0000 curroflores1952_z0 ._fpes_vsip000 como_cs pedir_vmn0000 q_zu en_sp000 galicia_np00000 no_rn,haya_vasp000,"gallegos_nc0p000 ,_fc pero_cc como_cs bien_rg dices_vmip000 allá_rg cada_di0000 uno_pi000000",other,Twitter,-8.6446202,42.4298846,37,8
singular,veces,tail.setting,Soria,Castilla y León,absent,Center,Aguaviva de la Vega,y ,había, unos [a-inn] a veces dos que se encargaban de,other,Coser,-2.3819792,41.2933061,42,5
singular,trabajadores,head,Palencia,Castile and León,absent,Center,Palencia,@luquebalastero_np00000 @cdpalencia_np00000 y_cc según_cs han_vaip000 comentado_vmp0000,había_vaii000,trabajadores_nc0p000 del_sp000 club_nc0s000 sin_sp000 contrato_nc0s000 y_cc sin_sp000 dar_vmn0000 de_sp000 alta_aq0000 eso_pd000000 es_vsip000,other,Twitter,-4.5288016,42.0096857,47,12
singular,clases,tail.setting,Málaga,Andalusia,absent,South,Ronda,"diporte_nc0s000 jocantaro2_z0 pues_cs el_da0000 mio_nc0s000 es_vsip000 normal_aq0000 ,_fc siempre_rg",hubo_vais000,clases_nc0p000 xd_nc0n000,synthetic.preterit,Twitter,-5.1612251,36.746209,3,6
singular,elecciones,tail.setting,León,Castile and León,absent,Center,Ponferrada,"solo_aq0000 puede_vmip000 quedar_vmn0000 uno_di0000 ppsoe_aq0000 ,_fc",habrá_vaif000,"elecciones_nc0p000 sin_sp000 parar_vmn0000 hasta_sp000 que_cs queden_vmsp000 los_da0000 de_sp000 siempre_rg ,_fc el_da0000 cortijo_nc0s000 no_rn se_pp000000 reparte_vmip000 con_sp000 nadie_pi000000",other,Twitter,-6.598259,42.5499958,79,10
singular,fulanos,head,Madrid,Community of Madrid,absent,Center,Madrid,me_p0000000 parece_vmip000 un_di0000 desperdicio_nc0s000 que_cs,haya_vasp000,fulanos_nc0p000 por_sp000 ahí_rg cantando_vmg0000 gilipolleces_nc0p000 httpst.cojwv9babewz_z0 vía_nc0s000 el_pais_nc0n000,other,Twitter,-3.7037902,40.4167754,57,7
singular,morilleros,head,Guipúzcoa,País Vasco,absent,North,Gabiria,pues ,habría, unos diez o doce morilleros.,other,Coser,-2.279352,43.0505823,19,10
singular,preguntas,tail.setting,Burgos,Castile and León,present,Center,Burgos,..._fs darte_vmsp000 una_di0000 vida_nc0s000 con_sp000 más_rg sumas_nc0p000 que_cs restas_aq0000 ._fpsi_cs tú_pp000000 me_pp000000 dejas_vmip000 no_rn,habrá_vaif000,"preguntas_nc0p000 ,_fc solo_aq0000 respuestas_nc0p000",other,Twitter,-3.696906,42.3439925,18,9
plural,entradas,tail.setting,Barcelona,Catalonia,present,East,Barcelona,iamnotbeck_nc0s000 no_rn,habían_vaii000,entradas_nc0p000 y_cc eran_vsii000 como_cs cien_dn0000 lucas_nc00000 por_sp000 los_da0000 dos_pn000000 ._fp-lrb-_aq0000,other,Twitter,2.1734035,41.3850639,42,8
singular,familias,head,Soria,Castilla y León,absent,Center,Aguaviva de la Vega,no tenían recursos porque ,había, familias que tenían sus recursos ,other,Coser,-2.3819792,41.2933061,26,8
singular,sorpresas,tail.setting,Asturias,Asturias,absent,North,Oviedo,"vienes_nc00000 a_sp000 la_da0000 #poke_np00000 60fidma_z0 a_sp000 partir_vmn0000 de_sp000 las_da0000 11_z0 ,_fc",habrá_vaif000,sorpresas_nc0p000 #pokemongo_np00000 en_sp000 nuestro_dp0000 stand_nc00000 en_sp000 feriasturias_nc0p000 httpst.coaluw1msy7c_z0,other,Twitter,-5.8493887,43.3619145,64,9
singular,clubes,tail.setting,Madrid,Community of Madrid,absent,Center,Madrid,jesé_vmis000,había_vaii000,"clubes_nc0p000 de_sp000 la_da0000 liga_nc0s000 y_cc la_da0000 premier_nc0s000 league_vmsp000 interesados_aq0000 ,_fc pero_cc elegí_vmis000 el_da0000 psg_nc0s000 httpst.cora5w1igsq6_nc0s000",other,Twitter,-3.7037902,40.4167754,83,6
singular,yeguas,head,La Rioja,La Rioja,absent,North,Sajazarra,yeguas de cría ,había, también. ,other,Coser,-2.9606844,42.5881539,10,6
singular,pulseras,head,Burgos,Castile and León,absent,Center,Aranda de Duero,doluigi_nc00000,habrá_vaif000,"pulseras_nc0p000 recargables_aq0000 en_sp000 todas_di0000 las_da0000 zonas_nc0p000 ,_fc eso_pd000000 es_vsip000",other,Twitter,-3.6902166,41.6692282,40,8
singular,momentos,tail.setting,Madrid,Community of Madrid,absent,Center,Leganés,jmmolanoc_nc00000,hubo_vais000,momentos_nc0p000 de_sp000 mirar_vmn0000 hacia_sp000 otro_di0000 lado_nc0s000 !_fatjajajaja_nc0s000,synthetic.preterit,Twitter,-3.7686545,40.3319506,27,8
singular,hornos,tail.setting,La Rioja,La Rioja,absent,North,Sajazarra,antiguamente ya ,había, más [hornos],other,Coser,-2.9606844,42.5881539,7,6
plural,hombres,head,Madrid,Community of Madrid,absent,Center,Getafe,blxcksroses_nc0p000 y_cc también_rg del_sp000 sexismo_nc0s000 en_sp000 el_da0000 cuerpo_nc0s000 del_sp000 hombre_nc0s000 ._fpno_rn,pueden_vmip000 haber_van0000,hombres_nc0p000 guapos_aq0000 con_sp000 un_di0000 kilito_aq0000 de_sp000 mássolo_nc0s000 son_vsip000 guapos_aq0000 los_da0000 &_f0 gt_nc0n000 &_f0 gt_nc0n000,other,Twitter,-3.7323934,40.3082504,57,7
plural,intenciones,tail.setting,Málaga,Andalusia,absent,South,Marbella,jaimenebotsaadi_nc00000 therealgerardo_aq0000 cynthiaviteri6_z0 aunque_cs,hayan_vasp000,buenas_aq0000 intenciones_nc0p000 hay_vaip000 personas_nc0p000 más_rg cualificadas_aq0000 para_sp000 hacer_vmn0000 d_np00000 ecuador_nc0s000 mejor_aq0000,other,Twitter,-4.8824474,36.510071,64,11
singular,depredadores,head,Madrid,Community of Madrid,absent,Center,Madrid,una_di0000 medida_nc0s000 sería_vsic000 capturar_vmn0000 ejemplares_nc0p000 vivos_aq0000 y_cc trasladarlos_aq0000 a_sp000 zonas_nc0p000 donde_cs,haya_vasp000,depredadores_nc0p000 que_pr000000 controlen_vmsp000 la_da0000 población_nc0s000 httpst.cor53tns7utj_nc0s000,other,Twitter,-3.7037902,40.4167754,47,12
singular,cosas,tail.setting,Salamanca,Castile and León,present,Center,Salamanca,alevysoler_nc0s000 telediario_tve_np00000 no_rn,habrá_vaif000,cosas_nc0p000 más_rg importantes_aq0000 ..._fs,other,Twitter,-5.6635397,40.9701039,20,5
singular,motivos,head,Cantabria,Cantabria,absent,North,Santander,wkr_vmn0000 apjuegos_nc0p000 theblackmeeple_aq0000 jm_allue_vmsp000 nachomo_aq0000 nosolorol_nc0s000 no_rn veo_vmip000 raro_aq0000 el_da0000 preguntar_vmn0000 .,puede_vmip000 haber_van0000,motivos_nc0p000 estéticos_aq0000 u_cc olvido_nc0s000 sin_sp000 intención._np00000,other,Twitter,-3.8099803,43.4623057,34,7
plural,novedades,tail.setting,Barcelona,Catalonia,absent,East,Barcelona,saloneroticobcn_nc00000 goldensexdreams_nc0n000 apricots_es_np00000 ha_vaip000 sido_vsp0000 divertido_aq0000 y_cc,habrán_vaif000,novedades_nc0p000 interesantes_aq0000 pronto_rg !_fat,other,Twitter,2.1734035,41.3850639,22,9
singular,problemas,tail.setting,Málaga,Andalusia,present,South,Málaga,parece_vmip000 que_cs el_da0000 club_nc0s000 ya_rg ha_vaip000 tomado_vmp0000 una_di0000 decisión_nc0s000 con_sp000 albentosa_aq0000 y_cc finalmente_rg éste_pd000000 no_rn seguirá_vmif000 ._fpparecía_vmii000 que_cs no_rn,habría_vaic000,problemas_nc0p000 ._fpuna_di0000 pena_nc0s000 ..._fs,other,Twitter,-4.4212655,36.721261,11,9
plural,cosas,tail.setting,Málaga,Andalusia,absent,South,Málaga,"-lrb-_nc00000 +_fz -rrb-_np00000 pienso_vmip000 que_cs el_da0000 final_nc0s000 ha_vaip000 sido_vsp0000 demasiado_rg abierto_aq0000 ,_fc odio_nc0s000 que_pr000000",hayan_vasp000,cosas_nc0p000 que_pr000000 se_p0000000,other,Twitter,-4.4212655,36.721261,7,5
singular,cabras,head,Segovia,Castilla y León,absent,Center,Santiuste de San Juan Bautista,antes ,había, mucha cabras y muchas ,other,Coser,-4.57147,41.1564838,17,6
singular,tasas,tail.setting,Madrid,Community of Madrid,absent,Center,Madrid,inesarrimadas_aq0000 elpais_espana_np00000 parcialmente_rg .,sigue_vmip000 habiendo_vag0000,"tasas_nc0p000 judiciales_aq0000 para_sp000 pymes_nc0p000 y_cc ongs_nc0p000 ,_fc el_da0000 parlamento_nc0s000 puede_vmip000 corregirlo._np00000",other,Twitter,-3.7037902,40.4167754,63,5
singular,botes,tail.setting,Madrid,Community of Madrid,present,Center,Madrid,en_sp000 la_da0000 consulta_nc0s000 del_sp000 pediatra_nc0s000 no_rn,debe_vmip000 haber_van0000,botes_nc0p000 de_sp000 leche_nc0s000 artificial_aq0000 según_cs cód_vmm0000 ._fpregulación_nc0s000 de_sp000 sucedáneos_nc0p000 de_sp000 #lechematerna_aq0000 #lactanciaxdinero_nc0s000,other,Twitter,-3.7037902,40.4167754,81,5
singular,bomberos,head,Burgos,Castile and León,present,Center,Burgos,._fpcorreodeburgos_rg queda_vmip000 la_da0000 esperanza_nc0s000 de_sp000 que_cs la_pp000000 sra_vmip000 conde_nc0s000 se_p0000000 refiera_vmsi000 a_sp000 que_cs a_sp000 partir_vmn0000 de_sp000 la_da0000 madrugada_nc0s000 del_sp000 domingo_w al_aq0000 lunes_w ya_rg no_rn,hubo_vais000,bomberos_nc0p000,synthetic.preterit,Twitter,-3.696906,42.3439925,0,8
singular,problemas,tail.setting,Asturias,Asturias,present,North,Gijón,liberbank_vmis000 efectivamente_rg no_rn,hubo_vais000,"problemas_nc0p000 ,_fc pero_cc q_vmm0000 las_da0000 chicas_nc0p000 d_np00000 atención_nc0s000 telefónica_aq0000 se_p0000000 informen_vmsp000 antes_rg d_np00000 informar.suc_np00000 -lrb-_np00000 0165_w -rrb-_aq0000 aun_cs esta_dd0000 operativa_aq0000",synthetic.preterit,Twitter,-5.6611195,43.5322015,111,9
singular,armas,head,Alicante,Valencian Community,absent,East,Alicante,vídeo_nc0s000 :_fd cuando_cs aznar_vmn0000 aseguraba_vmii000 que_cs,había_vaii000,"armas_nc0p000 de_sp000 destrucción_nc0s000 masiva_aq0000 en_sp000 irak_nc0s000 :_fd ""_fe estoy_vmip000 diciendo_vmg0000 la_da0000 verdad_nc0s000 ""_fe https://t.co/onfjue9rm9",other,Twitter,-0.4906855,38.3459963,85,5
singular,entradas,tail.setting,Madrid,Community of Madrid,absent,Center,Madrid,me_p0000000 sorprende_vmip000 que_cs,siga_vmsp000 habiendo_vag0000,entradas_nc0p000 tras_sp000 pasar_vmn0000 más_rg de_sp000 2_z0 horas_nc0p000 y_cc media.corred_np00000 !!_vaip000httpst.co8mwbfuahh9_nc0s000,other,Twitter,-3.7037902,40.4167754,57,8
singular,rumores,tail.setting,Sevilla,Andalusia,absent,South,Seville,@trappedindejavu_np00000 es_vsip000 muy_rg trágico_aq0000 pero_cc es_vsip000 que_cs buscandola_vmip000 vi_vmis000 que_cs,había_vaii000,rumores_nc0p000 de_sp000 que_cs planean_vmip000 una_di0000 segunda_ao0000 parte_nc0s000 muero_nc0s000,other,Twitter,-5.9844589,37.3890924,39,7
singular,problemas,tail.setting,Madrid,Community of Madrid,absent,Center,Madrid,"el_da0000 cenutrio_nc0s000 va_vmip000 a_sp000 lograr_vmn0000 que_cs su_dp0000 hijo_nc0s000 se_pp000000 llame_vmip000 lobo_nc0s000 ._fpla_da0000 hija_nc0s000 siguiente_aq0000 oveja_nc0s000 ,_fc supongo_vmip000 .",habrá_vaif000,problemas_nc0p000 de_sp000 violencia_nc0s000 animal_aq0000 en_sp000 la_da0000 familia._np00000,other,Twitter,-3.7037902,40.4167754,35,9
singular,personas,head,Córdoba,Andalusia,absent,South,Córdoba,@jpelirrojo_nc0s000 estoy_vmip000 muy_rg de_sp000 acuerdo_nc0s000 contigo_aq0000 ..._fs me_p0000000 parece_vmip000 penoso_aq0000 que_cs,siga_vmsp000 habiendo_vag0000,personas_nc0p000 que_pr000000 se_p0000000 diviertan_vmip000 con_sp000 el_da0000 maltrato_nc0s000 animal...,other,Twitter,-4.7793835,37.8881751,43,8
singular,tronistas,head,Granada,Andalusia,absent,South,Granada,,habrá_vaif000,tronistas_nc0p000 gays_aq0000 en_sp000 mujeres_nc0p000 y_cc hombres_nc0p000 y_cc vicerversa_nc0s000 httpst.coturgqra0mc_z0 httpst.coqvj5algguj_nc0s000,other,Twitter,-3.5985571,37.1773363,79,9
singular,mujeres,head,Albacete,Castilla-La-Mancha,absent,Center,Liétor," bueno, como ",había," tantas mujeres,",other,Coser,-1.9532994,38.5416545,9,7
singular,asesinatos,tail.setting,Barcelona,Catalonia,absent,East,Barcelona,pipote_nc0s000 sabes_vmip000 qué_pt000000 también_rg,hubo_vais000,asesinatos_nc0p000 de_sp000 derechistas_nc0p000 es_vsip000 que_pr000000 siempre_rg se_pp000000 os_pp000000 olvida_vmip000 #quecosas_aq0000,synthetic.preterit,Twitter,2.1734035,41.3850639,53,10
singular,personas,head,Jaén,Andalusia,absent,South,Martos,como_cs,puede_vmip000 haber_van0000,personas_nc0p000 tan_rg sumamente_rg necias_aq0000,other,Twitter,-3.9699874,37.7182399,21,8
plural,compradores,head,Castellón,Valencian Community,absent,East,Castellón de la Plana,ppascualpareja_aq0000 manuelcruzcs_nc0p000 vicas18_nc0s000 si_cs liquidación_nc0s000 d_np00000 la_da0000 basura_nc0s000 q_np00000 hay_vaip000 ._fpcon_sp000 un_di0000 más_rg deuda_nc0s000,habrán_vaif000,compradores_nc0p000 a_sp000 patadas._nc0p000,other,Twitter,-0.0513246,39.9863563,11,11
